stop_id,stop_name,stop_lat,stop_lon,location_type,parent_station,stop_timezone,country,plk_secondary_id
0,Lotnisko Modlin,52.44592070147,20.65071673974,0,,,,
10009,Korsze,54.17218815958,21.13651401118,0,,,,
10025,Łankiejmy,54.14225747014,21.06948827173,0,,,,
10033,Sątopy-Samulewo,54.073276749,21.0242308214,0,,,,
1008,Świnoujście,53.90470769185,14.26656323212,0,,,,
1024,Międzyzdroje,53.92428980699,14.45527677392,0,,,,
10264,Tołkiny,54.11757953105,21.23539103266,0,,,,
10272,Linkowo,54.09054152149,21.26541414758,0,,,,
10280,Nowy Młyn,54.066464533,21.32757895692,0,,,,
1032,Lubiewo,53.91551316328,14.41701010585,0,,,,
1040,Świnoujście Przytór,53.89745618943,14.33684509729,0,,,,
10405,Kętrzyn,54.07262720034,21.38515338756,0,,,,
10413,Martiany,54.02661795548,21.51664700383,0,,,,
1057,Świnoujście Warszów,53.90036624457,14.28530277179,0,,,,
10603,Szczytno,53.56020424599,20.99707764687,0,,,,
10629,Szymany,53.48692840552,20.96654890895,0,,,,
10637,Siódmak,53.52452290193,20.97143962765,0,,,,
10645,Jesionowiec,53.44669187808,20.9958118093,0,,,,
10652,Grom,53.60628292414,20.86202181998,0,,,,
10728,Świętajno,53.56275335686,21.22888534737,0,,,,
1073,Świnoujście Port,53.90122157607,14.26013897421,0,,,,
10736,Olszyny,53.55388104421,21.10722903455,0,,,,
10744,Jeruty,53.5526986374,21.15422245207,0,,,,
10751,Kolonia,53.56727025186,21.27229134348,0,,,,
10769,Spychowo,53.59124439098,21.35501355027,0,,,,
10827,Ruciane-Nida,53.64918966836,21.56292929043,0,,,,
10835,Ruciane-Nida Zachód,53.64258474779,21.52349285583,0,,,,
109,Szczecin Port Centralny,53.41307922018,14.56610588998,0,,,,
10900,Morąg,53.9190426325,19.92265326678,0,,,,
10918,Zielonka Pasłęcka,53.98089366426,19.7010313817,0,,,,
10926,Nowa Wieś Cierpkie,54.0244653024,19.65636163348,0,,,,
10934,Pasłęk,54.05549901392,19.65647127013,0,,,,
10942,Bogaczewo,54.10014439564,19.57311141869,0,,,,
10983,Małdyty,53.9212250891,19.73545069663,0,,,,
1107,Szczecin Dąbie,53.39123361294,14.66926219396,0,,,,
11148,Dobrocin,53.90999951922,19.82915728892,0,,,,
11155,Żabi Róg,53.876204023,20.01797652531,0,,,,
11163,Morąg Kolonia,53.90990791133,19.94578067853,0,,,,
11171,Kozia Góra,53.85328030983,20.08072941543,0,,,,
1123,Szczecin Zdroje,53.37882988237,14.63695399909,0,,,,
11254,Braniewo,54.3812759417,19.84198449969,0,,,,
11288,Jarzębiec,54.31291210058,19.99321281374,0,,,,
11296,Wysoka Braniewska,54.27922309243,20.02121507585,0,,,,
11312,Pieniężno,54.24012736522,20.1247000587,0,,,,
11320,Żugienie,54.25933674965,20.08806108892,0,,,,
11338,Henrykowo,54.17448664545,20.14453767657,0,,,,
11346,Orneta,54.11535789582,20.1504063499,0,,,,
11494,Grodzie,54.34525088992,19.96163247943,0,,,,
117168,Dzierżążno,54.31520235936,18.26392940475,0,,,,
1180,Szczecin Załom,53.42940887949,14.74382367001,0,,,,
11809,Ełk,53.82500922001,22.36246191495,0,,,,
118257,Orlanka,52.72696209944,23.34840733331,0,,,,
118265,Morze,52.73040794059,23.41123589682,0,,,,
118273,Stare Berezowo,52.7319166517,23.45341023279,0,,,,
118281,Chytra,52.73909818208,23.51503458583,0,,,,
11833,Stare Juchy,53.92496315876,22.16922226733,0,,,,
11841,Woszczele,53.8599125494,22.24857765272,0,,,,
11858,Wydminy,53.97676045014,22.03271586733,0,,,,
119040,Koziki,53.09923918499,22.04013484056,0,,,,
119206,Zegrze Południowe,52.45230882592,21.00886344373,0,,,,
11957,Olecko,54.03470477966,22.49437808454,0,,,,
1198,Kliniska,53.46073082018,14.78396596104,0,,,,
1214,Szczecin Zdunowo,53.38321816404,14.76353921303,0,,,,
12229,Prostki,53.69563443628,22.43140439706,0,,,,
12237,Ełk Szyba Wschód,53.80114713046,22.37289058286,0,,,,
12245,Lipińskie Małe,53.73640010911,22.39746598211,0,,,,
12252,Grajewo,53.64989283042,22.44843402862,0,,,,
12260,Bajtkowo,53.73714550244,22.23999274094,0,,,,
12278,Ełk Szyba Zachód,53.80233453089,22.37029543624,0,,,,
12286,Nowa Wieś Ełcka,53.77196898553,22.32360692533,0,,,,
12294,Pogorzel Wielka,53.70722001377,22.14986881874,0,,,,
12328,Drygały,53.67923597344,22.10398891467,0,,,,
12336,Biała Piska,53.61494359299,22.06528369869,0,,,,
12344,Kaliszki,53.62044334809,22.00605501733,0,,,,
12351,Stare Guty,53.6140180425,21.92472308797,0,,,,
12369,Pisz,53.63182419077,21.79292007566,0,,,,
12377,Szeroki Bór,53.6397314807,21.69952218551,0,,,,
124876,Дарниця,50.43172546463,30.64643739581,0,,Europe/Kyiv,UA,
124879,Київ-Пасажирськи,50.43996683953,30.48855184436,0,,Europe/Kyiv,UA,
124974,Волочиськ,49.53234964333,26.20807885587,0,,Europe/Kyiv,UA,
124979,Хмельницький,49.41614896337,27.00958728254,0,,Europe/Kyiv,UA,
125013,Вінниця,49.23923991905,28.51106106699,0,,Europe/Kyiv,UA,
125048,Шепетівка,50.1967716667,27.0659780395,0,,Europe/Kyiv,UA,
125070,Бердичів,49.88933992633,28.61351608694,0,,Europe/Kyiv,UA,
125072,Козятин 1,49.70497873298,28.82988451838,0,,Europe/Kyiv,UA,
125082,Бiла Церква,49.81216901167,30.11011361539,0,,Europe/Kyiv,UA,
125159,Ковель,51.22133284303,24.71238254428,0,,Europe/Kyiv,UA,
125182,Рівне,50.62796565491,26.23932122111,0,,Europe/Kyiv,UA,
125200,Ківерці,50.83040270827,25.46224503636,0,,Europe/Kyiv,UA,
125205,Тернопіль,49.55389256072,25.60101985395,0,,Europe/Kyiv,UA,
125266,Львів-Головний,49.84017591578,23.99376510501,0,,Europe/Kyiv,UA,
125334,Красне,49.91686691536,24.61531876981,0,,Europe/Kyiv,UA,
125508,Олександрія,48.67405205906,33.13311337352,0,,Europe/Kyiv,UA,
125585,імені Тараса Шевченка,49.20231041117,31.89726948202,0,,Europe/Kyiv,UA,
125634,Кременчук,49.06754706025,33.42797397494,0,,Europe/Kyiv,UA,
125653,Ромодан,49.99291883925,33.32231639743,0,,Europe/Kyiv,UA,
125662,Гребінка,50.12179568145,32.43255256534,0,,Europe/Kyiv,UA,
125672,Лубни,50.02044184217,32.97493814886,0,,Europe/Kyiv,UA,
125711,Харків-Пасажирський,49.98947692416,36.20335220218,0,,Europe/Kyiv,UA,
125780,Миргород,49.94924551136,33.62976729333,0,,Europe/Kyiv,UA,
125787,Полтава-Київська,49.60340974793,34.525415892,0,,Europe/Kyiv,UA,
125797,Люботин,49.94147828944,35.92696666181,0,,Europe/Kyiv,UA,
125806,Дніпро-Головний,48.47816324463,35.01491903186,0,,Europe/Kyiv,UA,
125880,Запоріжжя-1,47.79526153949,35.18800734401,0,,Europe/Kyiv,UA,
125930,Кривий Ріг,47.88105280734,33.38336347461,0,,Europe/Kyiv,UA,
12609,Giżycko,54.03136915601,21.77804811001,0,,,,
12633,Siedliska,54.00034406121,21.91429061453,0,,,,
12641,Sterławki Wielkie,54.01513127738,21.57506120865,0,,,,
12658,Wilkasy Niegocin,54.01961435742,21.73798453613,0,,,,
12666,Sterławki Małe,54.01171397853,21.64638429344,0,,,,
127085,Baška,49.65098734003,18.3691888994,0,,,CZ,
127146,Dobrá u Frýdku-Místku,49.6709052476,18.41421782434,0,,,CZ,
127149,Dobratice-Vojkovice,49.66973971136,18.47295097351,0,,,CZ,
127160,Frenštát pod Radhoštěm,49.54190223975,18.22431742609,0,,,CZ,
127162,Frýdek-Místek,49.67749066948,18.35402905405,0,,,CZ,
127163,Frýdlant nad Ostravicí,49.58907733184,18.35440456331,0,,,CZ,
127165,Čeladná,49.55289898819,18.3341753456,0,,,CZ,
127170,Pržno,49.61714015881,18.36197912157,0,,,CZ,
127178,Břeclav,48.75370602868,16.89301908016,0,,,CZ,
127206,Hnojník,49.67872989272,18.53898345888,0,,,CZ,
127209,Střítež u Českého Těšína,49.67886873929,18.56927096307,0,,,CZ,
127212,Horní Tošanovice,49.68132972905,18.50387870729,0,,,CZ,
127265,Hranice na Moravě,49.56555630789,17.74178812087,0,,,CZ,
127295,Hodonín,48.85605047412,17.12147895813,0,,,CZ,
127313,Kunčice pod Ondřejníkem,49.5349085576,18.2958787626,0,,,CZ,
127419,Olomouc hlavní nádraží,49.59266952402,17.27842032373,0,,,CZ,
127420,Ostrava hlavní nádraží,49.85137011689,18.26616504192,0,,,CZ,
127436,Ostrava-Svinov,49.82113048872,18.21006932259,0,,,CZ,
127469,Ropice,49.71249264183,18.61646174848,0,,,CZ,
127471,Ropice-Zálesí,49.69375773315,18.59655707538,0,,,CZ,
127482,Přerov,49.44669321692,17.44542018771,0,,,CZ,
127490,Studénka,49.70756328571,18.06649624765,0,,,CZ,
127507,Suchdol nad Odrou,49.64235232508,17.93899475992,0,,,CZ,
127651,Zábřeh na Moravě,49.87207959012,16.88729661405,0,,,CZ,
127662,Otrokovice,49.20287114359,17.53115426302,0,,,CZ,
127718,Staré Město u Uherského Hradiště,49.07631146985,17.42279324949,0,,,CZ,
127986,Letohrad,50.03150468731,16.50756124467,0,,,CZ,
128002,Jablonné nad Orlicí,50.02610961353,16.59422906399,0,,,CZ,
128006,Kolín,50.02535310152,15.21421917915,0,,,CZ,
12807,Suwałki,54.10586069177,22.94531372953,0,,,,
128071,Pardubice hlavní nádraží,50.03169404893,15.75661539495,0,,,CZ,
128154,Ústí nad Orlicí,49.97130816425,16.37850130498,0,,,CZ,
128157,Ústí nad Orlicí město,49.96855824532,16.39539385736,0,,,CZ,
128166,Česká Třebová,49.89715614384,16.44641653776,0,,,CZ,
128270,Liberec,50.76124676405,15.04594717026,0,,,CZ,
128274,Liberec-Rochlice,50.747259269,15.0617292881,0,,,CZ,
128471,Kořenov,50.77009166699,15.36584705114,0,,,CZ,
128481,Kořenov zastávka,50.76259163747,15.34721910954,0,,,CZ,
128485,Tanvald,50.74311580603,15.31090736389,0,,,CZ,
128488,Dolní Polubný,50.76052514348,15.32351642847,0,,,CZ,
128490,Desná,50.75345460071,15.30922293663,0,,,CZ,
128493,Tanvald zastávka,50.73699834631,15.30524253845,0,,,CZ,
128496,Smržovka dolní nádraží,50.73477793853,15.28064131737,0,,,CZ,
128502,Smržovka střed,50.73200058307,15.25454342365,0,,,CZ,
128506,Smržovka,50.74024049581,15.24376094341,0,,,CZ,
128522,Nová Ves nad Nisou,50.72351810415,15.19427418709,0,,,CZ,
128526,Lučany nad Nisou,50.73950721253,15.22521078587,0,,,CZ,
128529,Jablonecké Paseky,50.73154559717,15.19059419632,0,,,CZ,
128532,Jablonec nad Nisou,50.7207603497,15.16116517067,0,,,CZ,
128535,Jablonec nad Nisou zastávka,50.72040725064,15.18561601639,0,,,CZ,
128539,Jablonec nad Nisou dolní nádraží,50.72634296056,15.14922466278,0,,,CZ,
128543,Vesec u Liberce,50.74350333139,15.08082125187,0,,,CZ,
128547,Proseč nad Nisou,50.72813815551,15.1159080863,0,,,CZ,
128551,Vratislavice nad Nisou,50.74012222071,15.09361002445,0,,,CZ,
12872,Trakiszki,54.23942758887,23.20794756812,0,,,,
129043,Trutnov hlavní nádraží,50.56512932807,15.91119915247,0,,,CZ,
129049,Trutnov střed,50.57767400666,15.94466507435,0,,,CZ,
129059,Praha hlavní nádraží,50.0830243953,14.43630337715,0,,,CZ,
129063,Libeč,50.59622221397,15.94616259392,0,,,CZ,
129083,Praha-Libeň,50.10074856656,14.50238227844,0,,,CZ,
129109,Bernartice u Trutnova,50.6472427381,15.95906166138,0,,,CZ,
129111,Křenov,50.63832605406,15.93619731549,0,,,CZ,
12922,Płociczno koło Suwałk,54.0382974074,22.9487626093,0,,,,
12930,Szczepki,53.96698504512,22.98439850794,0,,,,
12948,Blizna,53.90637837021,23.01496241505,0,,,,
12955,Augustów Port,53.86251706655,23.00372660034,0,,,,
12963,Augustów,53.85269715953,23.02612300308,0,,,,
13003,Kostrzyn,52.59137475132,14.64705568111,0,,,,
130357,Budapest-Nyugati,47.51126595248,19.05829668045,0,,,HU,
130393,Vác,47.78256768492,19.13352191448,0,,,HU,
130396,Nagymaros-Visegrád,47.79108105046,18.95888328552,0,,,HU,
130399,Szob,47.82100012089,18.86197775602,0,,,HU,
13052,Namyślin,52.67811071791,14.57051659805,0,,,,
13078,Ługi Górzyckie,52.51573515997,14.65095718619,0,,,,
13086,Górzyca,52.49957659631,14.657152895,0,,,,
13094,Laski Lubuskie,52.45980471327,14.71270550109,0,,,,
130963,Kúty,48.66210760464,17.04756528139,0,,,SK,
130985,Bratislava hlavná stanica,48.15900779451,17.10647463799,0,,,SK,
130993,Poprad-Tatry,49.0601025774,20.29522954881,0,,,SK,
131012,Nové Zámky,47.99491539046,18.17450344563,0,,,SK,
131023,Štúrovo,47.79994255199,18.67922544479,0,,,SK,
13110,Radów,52.43163465224,14.74252808436,0,,,,
131137,Studený Potok,49.10894056854,20.35473167628,0,,,SK,
131140,Kežmarok,49.13939671633,20.42341768205,0,,,SK,
131150,Podolínec,49.25519445481,20.5264681524,0,,,SK,
131153,Stará Ľubovňa,49.30827022563,20.68023383081,0,,,SK,
13128,Kowalów,52.39753255864,14.7596656279,0,,,,
13250,Godków,52.90115645677,14.4586228439,0,,,,
13334,Chojna,52.96358798355,14.44419154429,0,,,,
13359,Lisie Pole,53.02214104856,14.45061871164,0,,,,
13375,Witnica Chojeńska,52.86620910399,14.45120222669,0,,,,
13417,Mieszkowice,52.7817920555,14.48582982023,0,,,,
13425,Boleszkowice,52.73668160007,14.51883616389,0,,,,
13433,Bielin,52.82239329683,14.46679975131,0,,,,
138923,Rijeka,45.33013646601,14.4296729511,0,,,HR,
138929,Šapjane,45.47689820908,14.24441275835,0,,,HR,
138931,Opatija-Matulji,45.36463709199,14.3211936897,0,,,HR,
138997,Zidani Most,46.08561440075,15.17017721593,0,,,SI,
139006,Ljubljana,46.05877441939,14.51299845636,0,,,SI,
13904,Gorzów Wielkopolski,52.72749044273,15.22879814324,0,,,,
139048,Laško,46.15471596674,15.23192165136,0,,,SI,
139049,Celje,46.22842921141,15.26822804332,0,,,SI,
139064,Maribor,46.56200292567,15.65814613223,0,,,SI,
139099,Borovnica,45.92130384612,14.36821817815,0,,,SI,
139103,Postojna,45.77323306383,14.22165691316,0,,,SI,
139105,Pivka,45.67537348046,14.19128357828,0,,,SI,
139128,Ilirska Bistrica,45.56921648899,14.23594235837,0,,,SI,
13938,Gorzów Wielkopolski Zieleniec,52.69972670878,15.26169709566,0,,,,
13946,Gorzów Wielkopolski Karnin,52.68894409415,15.28102240911,0,,,,
13953,Gorzów Wielkopolski Zamoście,52.72269033427,15.23901681331,0,,,,
13961,Gorzów Wielkopolski Wieprzyce,52.7178313548,15.18110982681,0,,,,
140105,Berlin-Charlottenburg,52.50436592003,13.30285300133,0,,,DE,
140106,Berlin Zoologischer Garten,52.50741264133,13.33254827976,0,,,DE,
140168,Berlin Ostkreuz,52.50318074601,13.46921680212,0,,,DE,
14019,Łupowo,52.70079702676,15.12316786061,0,,,,
14027,Bogdaniec,52.6891323478,15.07864072922,0,,,,
14035,Nowiny Wielkie,52.67263999176,15.00270424939,0,,,,
1404,Goleniów,53.55909731774,14.83954776098,0,,,,
14043,Witnica,52.66737323074,14.89613557767,0,,,,
14050,Kamień Mały,52.64165663653,14.78028438266,0,,,,
140581,Cottbus Hauptbahnhof,51.75094591445,14.3249298783,0,,,DE,
14068,Dąbroszyn,52.6187764275,14.71219237484,0,,,,
140685,Ruhland,51.45528,13.87,0,,,DE,
140707,Hoyerswerda,51.43278,14.23114323677,0,,,DE,
140727,Klinge,51.74361127201,14.51838583069,0,,,DE,
1412,Rurka,53.49379840327,14.79597448303,0,,,,
141249,Dresden Hauptbahnhof,51.04016873202,13.73240133995,0,,,DE,
141285,Görlitz-Rauschwalde,51.1491026985,14.93602416931,0,,,DE,
141286,Gersdorf (bei Görlitz),51.12521266367,14.85429338161,0,,,DE,
141287,Reichenbach (Oberlausitz),51.13558356245,14.79622906746,0,,,DE,
141288,Zoblitz,51.12374467723,14.75113040741,0,,,DE,
141290,Löbau (Sachs),51.09941305041,14.6717307877,0,,,DE,
141291,Breitendorf,51.13857297572,14.62291411045,0,,,DE,
141292,Pommritz,51.15903803176,14.57488093254,0,,,DE,
141294,Kubschütz,51.16573581189,14.50970390675,0,,,DE,
141295,Bautzen,51.17315753647,14.42871728836,0,,,DE,
141297,Seitschen,51.15370493958,14.32521562698,0,,,DE,
141298,Demitz-Thumitz,51.14195748408,14.24038518784,0,,,DE,
141299,Bischofswerda,51.12540176043,14.18570766865,0,,,DE,
141300,Weickersdorf (Sachs),51.11098660556,14.151289708,0,,,DE,
141301,Großharthau,51.10218968354,14.08778,0,,,DE,
141371,Arnsdorf (bei Dresden),51.09296867383,13.98194105026,0,,,DE,
141388,Radeberg,51.11163632193,13.91312227249,0,,,DE,
141406,Langebrück (Sachs),51.12685011878,13.84075058399,0,,,DE,
141407,Dresden-Klotzsche,51.11466106725,13.78905466501,0,,,DE,
141408,Dresden-Industriegelände,51.08735510839,13.76271562698,0,,,DE,
141410,Dresden-Neustadt,51.06586371144,13.74052422817,0,,,DE,
141412,Dresden Mitte,51.05609651258,13.72421291534,0,,,DE,
1420,Białuń,53.61507268414,14.84094975144,0,,,,
14308,Zwierzyn,52.83680698734,15.58457212689,0,,,,
14324,Stare Kurowo,52.85452117897,15.67850628405,0,,,,
14332,Sarbiewo,52.81915615554,15.54544708667,0,,,,
14340,Górki Noteckie,52.79337896631,15.48871847369,0,,,,
14357,Santok,52.74328445355,15.41564714626,0,,,,
1438,Łoźnica,53.69012162417,14.86615281088,0,,,,
14407,Piła Główna,53.14309783834,16.74507578666,0,,,,
14431,Dziembówko,53.07088930085,16.81515059873,0,,,,
14456,Piła Kalina,53.10119993738,16.78807308439,0,,,,
14464,Kaczory,53.10542543261,16.88162544058,0,,,,
14472,Miasteczko Krajeńskie,53.09268337563,17.01871771761,0,,,,
14480,Białośliwie,53.09782155203,17.12461062121,0,,,,
14498,Krostkowo,53.10786880699,17.20808590025,0,,,,
14514,Wyrzysk Osiek,53.11915408536,17.29478465849,0,,,,
14522,Stobno,53.10883813174,16.62536361632,0,,,,
14530,Biała Pilska,53.06117885107,16.51674606778,0,,,,
14548,Trzcianka,53.03334950777,16.46566994802,0,,,,
146599,Rosenheim,47.85001439968,12.11921291534,0,,,DE,
146659,München Ost,48.12757161227,11.60527894974,0,,,DE,
146771,München Hauptbahnhof,48.14035159445,11.55837291534,0,,,DE,
14704,Wałcz,53.27510473715,16.48431759469,0,,,,
14738,Wałcz Raduń,53.27686608822,16.45771163632,0,,,,
14746,Strączno,53.2435948687,16.36158227384,0,,,,
14753,Rutwica,53.22935867133,16.28324906618,0,,,,
14761,Tuczno Krajeńskie,53.21895710594,16.17519857003,0,,,,
14779,Dobino Wałeckie,53.22685116664,16.52479028217,0,,,,
14811,Szydłowo Krajeńskie,53.16679307058,16.60676702433,0,,,,
148445,Leipzig Hauptbahnhof,51.34499707342,12.38146793121,0,,,DE,
15008,Kalisz Pomorski,53.27774129392,15.88089584789,0,,,,
150193,Bad Kleinen,53.76692960947,11.46671042328,0,,,DE,
150194,Ventschow,53.78717313854,11.58004282209,0,,,DE,
150195,Blankenberg (Meckl),53.77226061511,11.71514516071,0,,,DE,
150198,Bützow,53.83714870434,11.99809132275,0,,,DE,
150200,Güstrow,53.80079145644,12.17257816931,0,,,DE,
150202,Priemerburg,53.79593464014,12.22296835582,0,,,DE,
150205,Lalendorf,53.755004,12.38694134855,0,,,DE,
150206,Neu Wokern,53.76000128724,12.50104474603,0,,,DE,
150207,Teterow,53.76832919811,12.57784630423,0,,,DE,
15032,Biały Zdrój Południowy,53.25652117356,15.95444365389,0,,,,
150439,Schwerin Hauptbahnhof,53.63471643392,11.40751844907,0,,,DE,
150453,Lübstorf,53.72906506993,11.41124089815,0,,,DE,
15057,Krępa Krajeńska,53.22769994741,16.05794597165,0,,,,
150594,Neubrandenburg,53.56187560709,13.2615830172,0,,,DE,
150616,Mölln (Meckl),53.58582117679,13.08463038161,0,,,DE,
150620,Reuterstadt Stavenhagen,53.70684914369,12.9140497963,0,,,DE,
150622,Malchin,53.74332182402,12.76148088228,0,,,DE,
15065,Jeziorki Wałeckie,53.22557788195,16.10790938348,0,,,,
150692,Angermünde,53.015195182,13.99648438161,0,,,DE,
150716,Passow (Uckermark),53.14906876579,14.10185279762,0,,,DE,
150717,Schönow (Uckermark),53.18506172334,14.15436117064,0,,,DE,
150718,Casekow,53.21358187607,14.20844985648,0,,,DE,
150719,Petershagen (Uckermark),53.24012467884,14.25285325529,0,,,DE,
150748,Pasewalk,53.51532862055,13.9898369008,0,,,DE,
150750,Pasewalk Ost,53.50957033782,14.00924903705,0,,,DE,
150751,Zerrenthin,53.4995495459,14.09756240608,0,,,DE,
150760,Oertzenhof,53.51808618952,13.57288296561,0,,,DE,
150761,Neetzka,53.53352756506,13.50078972024,0,,,DE,
150763,Sponholz,53.56387470945,13.36690525529,0,,,DE,
150780,Blumenhagen,53.5283627351,13.87250338889,0,,,DE,
15131,Prostynia,53.30522135217,15.77385187542,0,,,,
15149,Cybowo,53.29324570585,15.81649924634,0,,,,
15156,Żółwino,53.28892221709,15.6903771862,0,,,,
15354,Złotów,53.35922537361,17.05310625693,0,,,,
15511,Zakrzewo Złotowskie,53.41649174474,17.14087038914,0,,,,
15529,Lipka Krajeńska,53.49734059016,17.25740911939,0,,,,
15537,Krajenka,53.28905096242,16.99163627891,0,,,,
15545,Dolnik,53.25559721374,16.92982306457,0,,,,
15552,Skórka,53.21893814639,16.8706869151,0,,,,
15560,Piła Podlasie,53.16294643666,16.77709712655,0,,,,
15586,Brzeźno Człuchowskie,53.67086707644,17.48184483073,0,,,,
155861,Wien Westbahnhof,48.19673975636,16.33732728836,0,,,AT,
155886,St. Pölten Hauptbahnhof,48.20831212511,15.62466635582,0,,,AT,
155921,Linz Hauptbahnhof,48.29039064673,14.2920697963,0,,,AT,
155936,Attnang-Puchheim,48.01260774658,13.72070125397,0,,,AT,
15594,Człuchów,53.65763356828,17.37112539991,0,,,,
155955,Salzburg Hauptbahnhof,47.8128366455,13.04568516071,0,,,AT,
1560,Wysoka Kamieńska,53.82558867231,14.83212091762,0,,,,
15602,Chojnice,53.68889583547,17.57791578233,0,,,,
15610,Powałki,53.74337797716,17.5997675852,0,,,,
15644,Męcikał,53.83233576885,17.67117091705,0,,,,
15651,Żabno koło Chojnic,53.85447295276,17.70720421751,0,,,,
15669,Brusy,53.88229192363,17.72793107559,0,,,,
15677,Lubnia,53.93553688285,17.74229262611,0,,,,
15693,Racławki,53.66800619837,17.6541697963,0,,,,
157114,Wien Meidling,48.17459024816,16.33427235847,0,,,AT,
157133,Wiener Neustadt Hauptbahnhof,47.81142463061,16.233714459,0,,,AT,
157163,Bruck an der Mur,47.41408965448,15.27931661839,0,,,AT,
157172,Graz Hauptbahnhof,47.07278264776,15.41636854233,0,,,AT,
15727,Silno,53.64426536085,17.69326271164,0,,,,
15735,Piastoszyn,53.62106911416,17.72964320503,0,,,,
15743,Żalno,53.5981164038,17.75897125397,0,,,,
15750,Tuchola,53.5838779141,17.85998393387,0,,,,
15768,Cekcyn,53.57623259468,18.02795040741,0,,,,
1578,Parłówko,53.84564080353,14.74950635926,0,,,,
1586,Troszyn,53.84417894215,14.71740965077,0,,,,
15875,Wierzchowo Człuchowskie,53.61804777683,17.44762628532,0,,,,
15883,Moszczenica Pomorska,53.6423905808,17.48885638013,0,,,,
15891,Bukowo Człuchowskie,53.57356636298,17.37246948158,0,,,,
1610,Warnowo,53.92837728222,14.53557610424,0,,,,
16139,Rogoźno Wielkopolskie,52.75438614339,16.97174572074,0,,,,
16147,Tarnowo Rogozińskie,52.80389195646,16.97523618095,0,,,,
16154,Sokołowo Budzyńskie,52.83825318225,16.96926875192,0,,,,
16162,Budzyń,52.89416520031,16.96601673596,0,,,,
16170,Ostrówki koło Chodzieży,52.93352292895,16.92655981234,0,,,,
16188,Chodzież,52.99399610345,16.90955846355,0,,,,
16196,Milcz,53.04194847311,16.85783834081,0,,,,
1628,Ładzin,53.91089458144,14.5625739797,0,,,,
1636,Mokrzyca Wielka,53.87447082218,14.58041148287,0,,,,
16402,Jastrowie,53.40813914877,16.79827740168,0,,,,
16428,Ptusza,53.36543594295,16.78402766476,0,,,,
16436,Płytnica,53.29606843724,16.75083666351,0,,,,
1644,Wolin,53.84869452264,14.60973776241,0,,,,
16444,Stara Łubianka,53.23189096919,16.70505172427,0,,,,
16501,Maksymilianowo,53.2140410735,18.02921568594,0,,,,
1651,Kamień Pomorski,53.96616399426,14.77421193812,0,,,,
16527,Stronno,53.28582469317,18.0591990086,0,,,,
16535,Wudzyn,53.32258021109,18.07573583069,0,,,,
16543,Serock,53.36105798675,18.08974364418,0,,,,
16550,Lubania-Lipiny,53.38872766258,18.09701026257,0,,,,
16568,Świekatowo,53.41700245185,18.10513463558,0,,,,
16576,Lipienica,53.44655261955,18.11243072884,0,,,,
16584,Błądzim,53.47591229256,18.11514,0,,,,
16592,Wierzchucin,53.54824597328,18.11246126622,0,,,,
16618,Wierzchucin Stary,53.55710373162,18.09088740608,0,,,,
16626,Zielonka Pomorska,53.57746733084,18.10923,0,,,,
16634,Małe Gacno,53.60970172266,18.10952781349,0,,,,
16642,Zarośle,53.6643296086,18.11739,0,,,,
16659,Rosochatka,53.70531379034,18.11465463558,0,,,,
16667,Lipowa Tucholska,53.75362471078,18.10883635582,0,,,,
16691,Kotomierz,53.28399483874,18.12035682666,0,,,,
16717,Bydgoszcz Wschód,53.12792718815,18.08195121957,0,,,,
16725,Bydgoszcz Bielawy,53.13172228523,18.05393881327,0,,,,
16741,Bydgoszcz Brdyujście,53.13364988531,18.11156740608,0,,,,
16758,Bydgoszcz Politechnika,53.14073113928,18.13698530556,0,,,,
1677,Jarszewo,53.92980420363,14.79991294268,0,,,,
16782,Bydgoszcz Łęgnowo,53.10760214942,18.11293766861,0,,,,
1685,Górki Pomorskie,53.89826346481,14.82433582213,0,,,,
16907,Terespol Pomorski,53.40965319222,18.35191214257,0,,,,
17079,Parlin,53.37073988322,18.26951898085,0,,,,
17087,Pruszcz Pomorski,53.33391535213,18.19821409961,0,,,,
1719,Rokita,53.76638397519,14.85497651762,0,,,,
17202,Laskowice Pomorskie,53.49127459736,18.45632827308,0,,,,
17210,Warlubie,53.58839480747,18.62266283095,0,,,,
17228,Twarda Góra,53.68264240826,18.67160417934,0,,,,
17269,Czersk Świecki,53.55137824414,18.46773125397,0,,,,
1727,Stawno,53.86692573501,14.82783994619,0,,,,
17285,Dąbrowy,53.51731520724,18.48968713939,0,,,,
17293,Kwiatki,53.57835369961,18.42160463558,0,,,,
17319,Osie,53.59362183829,18.34754906746,0,,,,
17327,Tleń,53.61432182269,18.26656833862,0,,,,
17335,Łążek,53.6405585891,18.21535781349,0,,,,
17343,Śliwiczki,53.68713917161,18.19296072884,0,,,,
17350,Śliwice,53.71312331631,18.18218728836,0,,,,
17368,Laski Tucholskie,53.66637581534,18.20793708466,0,,,,
17434,Jeżewo,53.50739287657,18.48922311187,0,,,,
17442,Dubielno,53.50874874796,18.55661628485,0,,,,
17459,Grupa,53.5039376174,18.62919687152,0,,,,
17467,Dolna Grupa,53.49876536892,18.67723523498,0,,,,
17509,Kościerzyna,54.1205684094,17.99476023801,0,,,,
17582,Łubiana,54.11478342664,17.8665775581,0,,,,
17590,Garczyn,54.1237423648,17.91107850342,0,,,,
17608,Lipusz,54.09680547844,17.78035044907,0,,,,
17616,Lipuska Huta,54.07022899545,17.76734018083,0,,,,
17624,Kalisz Kaszubski,54.04509654868,17.78607937416,0,,,,
17632,Dziemiany Kaszubskie,54.01134622646,17.77521604984,0,,,,
17640,Raduń,53.96932714021,17.77844102848,0,,,,
17731,Skorzewo,54.16523726929,17.9809645666,0,,,,
17749,Gołubie Kaszubskie,54.21246011585,18.03672946025,0,,,,
17756,Krzeszna,54.23561452305,18.08878756736,0,,,,
17764,Wieżyca,54.23452651599,18.12777765757,0,,,,
17772,Sławki,54.25725182006,18.17622188136,0,,,,
17780,Somonino,54.26991503847,18.19295567982,0,,,,
177923,Siedlce Wschodnie,52.14431438014,22.29785462698,0,,,,
177959,Łódź Arturówek,51.8155197341,19.45645451277,0,,,,
177961,Łódź Stoki,51.77667292425,19.51035886735,0,,,,
177962,Łódź Marysin,51.80005668179,19.48650330037,0,,,,
177968,Łódź Olechów Wiadukt,51.72367619399,19.54348161436,0,,,,
177969,Łódź Olechów Wschód,51.72975345469,19.59443912482,0,,,,
17798,Kiełpino Kartuskie,54.28723277738,18.23151458891,0,,,,
177980,Łódź Andrzejów Szosa,51.74155952443,19.61292961818,0,,,,
177993,Radzice,51.46668104587,20.39713739276,0,,,,
178019,Witowo,52.63963520548,23.4851332601,0,,,,
178068,Barwałd Średni,49.87235435702,19.59824251759,0,,,,
178077,Podolany,49.89819236475,19.75341793491,0,,,,
178079,Dębica Wschodnia,50.06242168658,21.44851629366,0,,,,
178108,Leźno,54.34763352884,18.45924674928,0,,,,
178111,Brzezie,52.69628600796,18.96499053468,0,,,,
178137,Olsztyn Likusy,53.78965818794,20.44487273728,0,,,,
178222,Brzeszcze,49.99578461121,19.15458797872,0,,,,
178226,Słone,51.92880304024,15.39015590608,0,,,,
178278,Rajcza Centrum,49.50669043013,19.10026251733,0,,,,
178279,Cięcina Dolna,49.62152120817,19.15203827976,0,,,,
178290,Bielawa Centralna,50.69282746885,16.62081250793,0,,,,
178345,Szklarska Poręba Huta,50.82660495542,15.49694469444,0,,,,
178392,Hurko,49.78526658903,22.86267933003,0,,,,
178406,Kraków Nowa Huta,50.09047339955,20.1288400172,0,,,,
178452,Opole Zachodnie,50.66084320994,17.89841794076,0,,,,60665
178473,Kłokowa,49.95329886183,20.95726657367,0,,,,
178476,Żurawica Rozrządowa,49.83246942889,22.83733470128,0,,,,
17848,Borkowo,54.33337014879,18.33346813902,0,,,,
17855,Żukowo Wschodnie,54.34849600561,18.37314270622,0,,,,
178587,Czyżowice,49.97420639822,18.42581309193,0,,,,
178588,Poręba,50.48392391678,19.3321072948,0,,,,
178592,Czerwionka Dębieńsko,50.15684,18.66369530556,0,,,,
17863,Pępowo Kartuskie,54.3668619273,18.40163296934,0,,,,
178633,Chotomów,52.4156838428,20.88478693254,0,,,,
178637,Dobroń,51.62960816031,19.2416131645,0,,,,
178639,Kolumna,51.61481795902,19.19568764724,0,,,,
178662,Wrocław Brochów,51.06436746475,17.08460021052,0,,,,
178685,Spała,51.55218309853,20.13521166138,0,,,,
17871,Rębiechowo,54.38869046123,18.42161793254,0,,,,
178829,Gdynia Cisowa,54.55003024337,18.44648743667,0,,,,
178885,Jezierzany,51.23572938863,16.09746081713,0,,,,
178887,Dąbrowa Oleśnicka,51.23003094297,17.3688819079,0,,,,
178892,Koźlice,51.45097800898,16.23290466501,0,,,,
178896,Ludwikowice Kłodzkie,50.6194623503,16.48149306019,0,,,,
179080,Łuków Zapowiednik,51.93202696493,22.41436825201,0,,,,
179081,Nowe Dębe Wielkie,52.19339671162,21.44009152513,0,,,,
179200,Mockava,54.32812093551,23.35573813462,0,,Europe/Vilnius,LT,
179210,Forst (Lausitz),51.73888432313,14.63714790204,0,,,DE,
179212,Frankfurt (Oder),52.33643454168,14.54657617299,0,,,DE,
179213,Guben,51.95821565204,14.70663517445,0,,,DE,
179216,Görlitz,51.14664260811,14.97892085193,0,,,DE,
179217,Tantow,53.27047736065,14.34939004471,0,,,DE,
179218,Grambow,53.41727731155,14.347177496,0,,,DE,
179221,Petrovice u Karviné,49.89406074761,18.55008243442,0,,,CZ,
179223,Bohumín,49.90081976766,18.35969923854,0,,,CZ,
179225,Český Těšín,49.74319815511,18.62240568584,0,,,CZ,
179228,Lichkov,50.09723178982,16.65857254922,0,,,CZ,
179234,Královec,50.6729252236,15.97039860119,0,,,CZ,
179240,Basznia,50.17861368458,23.24903665057,0,,,,
179242,Łagów,52.33688292412,15.30142306745,0,,,,
179275,Plaveč,49.26923970266,20.85066675603,0,,,SK,
179282,Skalité,49.49816832447,18.89083128109,0,,,SK,
18002,Kartuzy,54.33401066344,18.2060686118,0,,,,
18051,Żukowo Zachodnie,54.33339190537,18.34904014528,0,,,,
18200,Nakło nad Notecią,53.142570647,17.60715211531,0,,,,
18234,Samostrzel,53.12775103674,17.43407235498,0,,,,
18242,Anieliny,53.1290913408,17.48641663311,0,,,,
18259,Jadwiżyn,53.12390562935,17.37193483541,0,,,,
18374,Bydgoszcz Leśna,53.14351512249,18.03218214594,0,,,,
18408,Bydgoszcz Główna,53.13528294461,17.99163586184,0,,,,
18432,Rynkowo Wiadukt,53.15177134005,18.00540652287,0,,,,
18499,Zielonczyn,53.15100116861,17.80741598266,0,,,,
18515,Bydgoszcz Zachód,53.13588000919,17.94945872171,0,,,,
18523,Bydgoszcz Osowa Góra,53.14816837894,17.91214337819,0,,,,
18531,Pawłówek,53.15220031319,17.85637761644,0,,,,
18549,Ślesin,53.15608625702,17.70064903338,0,,,,
18564,Trzciniec,53.08560782546,17.94818045332,0,,,,
18572,Brzoza Bydgoska,53.02744122739,18.02037193442,0,,,,
18580,Bydgoszcz Fordon,53.14646582746,18.15762647123,0,,,,
1859,Nowogard,53.66611406458,15.12096218901,0,,,,
18598,Ostromecko,53.14378546113,18.21442667725,0,,,,
18614,Dąbrowa Chełmińska,53.17506234391,18.2816980172,0,,,,
18622,Gzin,53.19201464589,18.33172588955,0,,,,
1867,Wyszomierz,53.62601863881,15.06367927789,0,,,,
18705,Inowrocław,52.8054428257,18.24415940463,0,,,,
1875,Osina,53.60880680993,15.01241935616,0,,,,
18770,Więcławice,52.84113111085,18.30442923187,0,,,,
18788,Wierzchosławice,52.86819151502,18.35787899427,0,,,,
18796,Gniewkowo,52.88804590716,18.40383843265,0,,,,
18812,Suchatówka,52.91033232961,18.47993400346,0,,,,
1883,Mosty,53.57438318093,14.94052722936,0,,,,
18838,Inowrocław Rąbinek,52.76926334759,18.24369370401,0,,,,
190012,Geniusze,53.38232133906,23.43553435143,0,,,,
190033,Skalité-Serafínov,49.50155729164,18.96396997288,0,,,SK,
190034,Skalité-Kudlov,49.49886651601,18.93579661839,0,,,SK,
190035,Skalité pod Poľanou,49.49575140542,18.91596054764,0,,,SK,
190042,Рава-Руська,50.23284643759,23.63707422674,0,,Europe/Kyiv,UA,
19034,Jaksice,52.85601213392,18.19931331535,0,,,,
19042,Złotniki Kujawskie,52.90345301174,18.14756393376,0,,,,
19059,Nowa Wieś Wielka,52.96857172578,18.09670252468,0,,,,
19075,Chmielniki Bydgoskie,53.00161577503,18.05013670189,0,,,,
19091,Janikowo,52.74898255909,18.11618383708,0,,,,
19125,Kołodziejewo,52.71297787963,18.03507027071,0,,,,
19174,Babiak,52.35331125446,18.67035268664,0,,,,
19190,Piotrków Kujawski,52.53779355906,18.51947306514,0,,,,
19406,Zduńska Wola Karsznice,51.58911622285,18.99462102771,0,,,,
19414,Zduńska Wola Południowa,51.58010318117,19.00567172885,0,,,,
19430,Zduńska Wola,51.61127947075,18.94675425261,0,,,,
19471,Męcka Wola,51.60910272599,18.84686260735,0,,,,
19489,Sieradz,51.59775671857,18.71469214251,0,,,,
19505,Sieradz Męka,51.61513716082,18.77681534113,0,,,,
19513,Sieradz Warta,51.60287558176,18.73002291157,0,,,,
19547,Kozuby,51.49411359904,19.02314835974,0,,,,
19554,Siedlce Łaskie,51.45697522461,19.01547788501,0,,,,
19562,Chociw Łaski,51.40590548128,18.98266910433,0,,,,
19570,Rusiec Łódzki,51.31627999193,18.96921333555,0,,,,
1958,Płoty,53.8082099732,15.26130313527,0,,,,
19588,Huta,51.2701083441,18.96335221619,0,,,,
19612,Wielowieś,50.62518771919,21.75847334143,0,,,,
19703,Toruń Główny,53.00028543145,18.61523577175,0,,,,
1974,Żabowo,53.71759724003,15.19063666242,0,,,,
19752,Toruń Czerniewice,52.97495301956,18.67391481421,0,,,,
19760,Brzoza Toruńska,52.96139683976,18.68526576877,0,,,,
19778,Otłoczyn,52.91267765555,18.69266907185,0,,,,
19786,Toruń Kluczyki,52.99005809783,18.57845761241,0,,,,
19794,Toruń Miasto,53.01255851114,18.61958619091,0,,,,
19810,Cierpice,52.98877404353,18.4699276489,0,,,,
19828,Przyłubie,53.04983131727,18.32408873476,0,,,,
19844,Solec Kujawski,53.07834855349,18.22523224971,0,,,,
19901,Toruń Wschodni,53.02627374254,18.63324836377,0,,,,
19935,Lubicz,53.02795742353,18.74520953373,0,,,,
19943,Grębocin,53.04586045779,18.689986462,0,,,,
19950,Dobrzejewice,52.99909880142,18.82203381615,0,,,,
19968,Obrowo,52.96814492338,18.88307259392,0,,,,
19976,Czernikowo,52.93951112405,18.95099320734,0,,,,
19984,Ograszka,52.90586529593,19.02613344048,0,,,,
20016,Konotopie,52.86998628611,19.10265714352,0,,,,
20024,Lipno,52.85416056431,19.17894702579,0,,,,
20032,Karnkowo,52.86702647664,19.26449688095,0,,,,
20040,Skępe,52.87211057235,19.34167755093,0,,,,
20057,Czermno,52.86366,19.42471125397,0,,,,
20065,Papowo Toruńskie,53.06806413795,18.69328479873,0,,,,
201092,Warszawa Praga,52.276981488,21.02265696693,0,,,,36129
20164,Chełmża,53.18508108504,18.59809033492,0,,,,
20255,Wrocławki,53.24116188206,18.61031166138,0,,,,
20263,Kornatowo,53.29704335954,18.64772364418,0,,,,
20271,Firlus,53.26941757775,18.6294580172,0,,,,
20370,Ostaszewo Toruńskie,53.11064981067,18.62728562698,0,,,,
20388,Grzywna,53.15491489495,18.61711145767,0,,,,
20396,Łysomice,53.08486809764,18.61997682209,0,,,,
20412,Unisław Pomorski,53.20653072246,18.38400542328,0,,,,
20420,Grzybno,53.20358714743,18.4462202037,0,,,,
20446,Nawra,53.20323285268,18.48466239021,0,,,,
20453,Głuchowo,53.20206321326,18.54354344048,0,,,,
20503,Grudziądz,53.48202833459,18.760921647,0,,,,
20537,Grudziądz Owczarki,53.50280551803,18.84686602208,0,,,,
20545,Rogóźno Pomorskie,53.54392060108,18.91133358215,0,,,,
20552,Gardeja,53.59187465865,18.93280703879,0,,,,
20560,Nicwałd,53.45978714819,18.88012102083,0,,,,
20578,Mełno,53.43672904671,18.94784330249,0,,,,
20628,Grudziądz Mniszek,53.4330403102,18.72535781349,0,,,,
20636,Grudziądz Przedmieście,53.47464903578,18.74890489815,0,,,,
20644,Wałdowo Szlacheckie,53.38749035308,18.72277,0,,,,
20651,Gorzuchowo Chełmińskie,53.35042134076,18.69325874603,0,,,,
20669,Dragacz,53.49149252232,18.70995282054,0,,,,
20719,Kowalewo Pomorskie,53.16390015664,18.86912122812,0,,,,
20727,Zieleń,53.21617170908,18.93055668537,0,,,,
20743,Wąbrzeźno,53.26501488054,18.98184118506,0,,,,
20768,Rychnowo Wielkie,53.14251923905,18.81447893464,0,,,,
20776,Kamionki Jezioro,53.12978058548,18.77983152395,0,,,,
20784,Turzno,53.10076888342,18.73652242151,0,,,,
208,Szczecin Gumieńce,53.39796622962,14.49716905694,0,,,,
20909,Jabłonowo Pomorskie,53.39343883028,19.16297520632,0,,,,
20933,Książki,53.32988662059,19.06743292583,0,,,,
20941,Bursztynowo,53.40152,19.06933,0,,,,
20958,Linowo,53.41119462852,19.03297660589,0,,,,
20966,Boguszewo,53.42202657534,19.00063989401,0,,,,
209839,Знам’янка-Пасажирська,48.71037637811,32.68977640986,0,,Europe/Kyiv,UA,
209910,Кам'янське-Пасажирське,48.49728435238,34.60406362474,0,,Europe/Kyiv,UA,
21055,Konojady,53.34937293657,19.22761914968,0,,,,
21063,Ostrowite koło Jabłonowa,53.43368324719,19.26812972453,0,,,,
21071,Biskupiec Pomorski,53.48938671312,19.38935189345,0,,,,
21097,Lipinki,53.46438168847,19.3188861896,0,,,,
211567,Spišská Belá zastávka,49.18431726619,20.47163676323,0,,,SK,
21204,Brodnica,53.26365677302,19.40584122598,0,,,,
21352,Najmowo,53.3067495231,19.32176469684,0,,,,
21428,Rypin,53.06863231073,19.42769586772,0,,,,
2147,Trzebiatów,54.06059807419,15.27763338805,0,,,,
21501,Aleksandrów Kujawski,52.87577962272,18.69652461131,0,,,,
21535,Nieszawa Waganiec,52.80312571824,18.87017088688,0,,,,
2154,Gąbin,54.01065169468,15.2867842755,0,,,,
21543,Turzno Kujawskie,52.83350450139,18.78086236224,0,,,,
21550,Ciechocinek,52.88140387601,18.7885308212,0,,,,
21568,Odolion,52.86991659616,18.74750107259,0,,,,
21600,Włocławek,52.65299481041,19.05898571719,0,,,,
216137,Borucice,50.98195411375,17.55672155093,0,,,,
2162,Górzyca Reska,53.96931271802,15.23300754656,0,,,,
21642,Włocławek Zazamcze,52.6681799647,19.03827462692,0,,,,
21659,Lubanie,52.74246066148,18.92430247059,0,,,,
21683,Czerniewice,52.50895836903,19.08934113293,0,,,,
2170,Gryfice,53.91486909876,15.19175232243,0,,,,
21717,Warząchewka,52.5847377689,19.08077691384,0,,,,
21733,Gołaszewo Kujawskie,52.54652998608,19.0912225776,0,,,,
21741,Wiktorowo,52.46428159846,19.10633478788,0,,,,
21758,Kaliska Kujawskie,52.41190907786,19.12392194677,0,,,,
21766,Rutkowice,52.36167955691,19.15905632329,0,,,,
21808,Iława Główna,53.58231351954,19.57368118092,0,,,,
21816,Iława Miasto,53.59578157385,19.54828696662,0,,,,
21824,Rudzienice Suskie,53.63816621839,19.66818546718,0,,,,
21832,Pikus,53.65633047277,19.73778270089,0,,,,
21840,Samborowo,53.67184512434,19.82036058529,0,,,,
21857,Smolniki,53.54025761411,19.60436469159,0,,,,
21865,Rakowice,53.47816034692,19.64148965795,0,,,,
21873,Zajączkowo Lubawskie,53.4442854364,19.71297885189,0,,,,
2188,Baszewice,53.86282216121,15.19239284608,0,,,,
21881,Montowo,53.41618307104,19.78003703047,0,,,,
21899,Hartowiec,53.39613298757,19.84517478658,0,,,,
21923,Jeglia,53.39105150998,19.87611679498,0,,,,
21931,Jamielnik,53.52868023833,19.50079801807,0,,,,
22004,Ostróda,53.69967504512,19.95142715682,0,,,,
2204,Stargard,53.33916044899,15.03132722574,0,,,,
220591,Łódź Olechów Zachód,51.72496777711,19.55949202168,0,,,,
22079,Stare Jabłonki,53.69135344775,20.09366151963,0,,,,
22087,Lubajny,53.70042725499,20.02500832025,0,,,,
22095,Biesal,53.72026146591,20.19367253802,0,,,,
2212,Ulikowo,53.34854535165,15.11740972817,0,,,,
2220,Gogolewo,53.37220968931,15.17647376905,0,,,,
22202,Nidzica,53.35711425351,20.41398876596,0,,,,
22236,Kozłowo,53.31083432105,20.31274849188,0,,,,
22244,Zakrzów-Sarnowo,53.28284400425,20.2845943577,0,,,,
22400,Iłowo,53.16565276898,20.29372732275,0,,,,
22434,Narzym,53.18996957,20.25356215211,0,,,,
22442,Działdowo,53.23894199774,20.1672217791,0,,,,
22459,Burkat,53.27517359084,20.1353243569,0,,,,
22467,Turza Wielka,53.30737998054,20.08390632526,0,,,,
224678,Frenštát pod Radhoštěm město,49.54452146431,18.20834808355,0,,,CZ,
22475,Gralewo,53.32016175727,20.03490659746,0,,,,
22483,Żabiny,53.34214940502,19.98314374022,0,,,,
22491,Tuczki,53.35213728614,19.95460390208,0,,,,
22517,Rybno Pomorskie,53.38090761567,19.91399262892,0,,,,
2253,Reptowo,53.37238311132,14.86373790328,0,,,,
2279,Miedwiecko,53.36471987503,14.92454228294,0,,,,
22905,Prabuty,53.75781755726,19.21039490068,0,,,,
22939,Susz,53.71120190409,19.32907854879,0,,,,
22954,Redaki,53.67107421044,19.40818047442,0,,,,
22962,Ząbrowo,53.63723902211,19.46088081705,0,,,,
23044,Mikołajki Pomorskie,53.84976093593,19.15838597059,0,,,,
23051,Gdakowo,53.81649149556,19.17013400255,0,,,,
23101,Kwidzyn,53.73096712328,18.93361571347,0,,,,
2311,Grzędzice,53.35826690536,14.97252683247,0,,,,
23143,Sadlinki,53.66726316996,18.88045234718,0,,,,
23168,Dziwno,53.61870496794,18.9017196495,0,,,,
23192,Brachlewo,53.80243977919,18.96120131131,0,,,,
23218,Ryjewo,53.84319010872,18.95681329538,0,,,,
23226,Sztumska Wieś,53.89508223835,19.00146283258,0,,,,
2329,Kolin,53.24501073137,15.1238891382,0,,,,
23309,Ostrołęka,53.05607334229,21.61671868584,0,,,,
233169,Słubice,52.33595458924,14.59507038591,0,,,,
233222,Siedlce Zachodnie,52.17351388703,22.2355422324,0,,,,
23333,Grabowo,53.07284167846,21.53316019893,0,,,,
23341,Nowa Wieś Kościelna,53.08472623382,21.41255735278,0,,,,
23358,Zabiele Wielkie,53.08460380225,21.34836671591,0,,,,
23366,Jastrząbka,53.1326426275,21.24736052513,0,,,,
23374,Parciaki,53.17479952878,21.14110861244,0,,,,
23382,Olszewka,53.21430815735,21.05940038359,0,,,,
23390,Raszujka,53.24610249644,21.00394457275,0,,,,
23416,Chorzele,53.27941854423,20.9430678889,0,,,,
23432,Wielbark,53.4002127907,20.95288037181,0,,,,
23440,Kurpie,53.05582765746,21.75462482214,0,,,,
2345,Witkowo,53.28450823145,15.07831252373,0,,,,
23465,Śniadowo,53.04385448775,21.99063777387,0,,,,
23531,Kulesze Kościelne,53.01991432215,22.51953184068,0,,,,
23549,Sokoły,52.9998867729,22.71915256441,0,,,,
235669,Lewin Brzeski,50.75811696643,17.61540146435,0,,,,
235879,Kraków Lotnisko,50.07095272195,19.80129807919,0,,,,
2360,Morzyca,53.21861252291,15.15528061464,0,,,,
236232,Zabierzów Rząska,50.10575289604,19.82342125397,0,,,,
236483,Löcknitz,53.45613209781,14.21539946337,0,,,DE,
23655,Gierwaty,52.9925236435,21.60403431779,0,,,,
23663,Goworowo,52.92109104572,21.58202165277,0,,,,
23671,Pasieki,52.85402350326,21.56048106746,0,,,,
23689,Prabuty Góry,52.80640571438,21.56985827116,0,,,,
23697,Przetycz,52.76895988161,21.55118464887,0,,,,
23713,Dalekie,52.68248581795,21.49440306746,0,,,,
23721,Leszczydół,52.64587921163,21.46926464418,0,,,,
23739,Zygmuntowo Mazowieckie,52.72745056379,21.52551669444,0,,,,
23804,Łomża,53.17221083625,22.06464260548,0,,,,
2386,Dolice,53.19917286418,15.20880649049,0,,,,
239138,Kraków Podgórze,50.04144753293,19.96005213439,0,,,,
239140,Kraków Grzegórzki,50.05743496953,19.94795858324,0,,,,
24000,Białystok,53.13357012396,23.1353969616,0,,,,
24042,Białystok Starosielce,53.12133576085,23.08656280864,0,,,,
24059,Białystok Bacieczki,53.15092967256,23.07171681973,0,,,,
24067,Fasty,53.1767017601,23.02492544428,0,,,,
240720,Warszawa Żwirki i Wigury,52.19340974892,20.98037906746,0,,,,
24075,Dobrzyniewo Duże,53.19434708606,23.002746358,0,,,,
24083,Borsukówka,53.22733793467,22.93083655236,0,,,,
24091,Knyszyn,53.28463049794,22.89599857642,0,,,,
24117,Zastocze,53.31236921407,22.857372896,0,,,,
24125,Czechowizna,53.35117161474,22.83676115472,0,,,,
24133,Mońki,53.40236162335,22.79687370076,0,,,,
24141,Goniądz,53.45937931057,22.7263862125,0,,,,
241558,Cygany,50.51268628593,21.69704854489,0,,,,
241559,Tarnowska Wola,50.45157475985,21.73572063446,0,,,,
241560,Rogoźnica koło Rzeszowa,50.11691142317,21.96892261505,0,,,,
241561,Rzeszów Miłocin,50.07556107463,21.9872072339,0,,,,
24158,Osowiec,53.47288699902,22.65683136153,0,,,,
24166,Podlasek,53.55790339299,22.53482581267,0,,,,
241701,Port Lotniczy Szczecin Goleniów,53.59359705876,14.89776528836,0,,,,
241793,Harrachov,50.77146072849,15.39339478043,0,,,CZ,
24182,Ruda,53.58936189187,22.52060171512,0,,,,
24190,Wasilków,53.19794863109,23.17681023032,0,,,,
241960,Wieliczka Rynek-Kopalnia,49.985672592,20.05670606822,0,,,,
241966,Wrocław Stadion,51.13716008979,16.94045936931,0,,,,
241994,Warszawa Lotnisko Chopina,52.16962861123,20.97518083069,0,,,,
24216,Czarny Blok,53.24852216112,23.20921213215,0,,,,
242218,Kotowo,52.22834342842,16.4837562381,0,,,,
242219,Zielone Wzgórza,52.56507326357,17.00848416931,0,,,,
242220,Czerwonak Osiedle,52.48026178794,16.97802536442,0,,,,
24224,Wólka Ratowiecka,53.27962158213,23.24356799945,0,,,,
24232,Czarna Białostocka,53.30561866908,23.27966765671,0,,,,
24240,Machnacz,53.33136054596,23.31764179735,0,,,,
24257,Rozedranka,53.35910923869,23.36548483305,0,,,,
24273,Białystok Fabryczny,53.14024184289,23.18444390816,0,,,,
2428,Tarnowo Pomorskie,53.30628810479,15.36666556906,0,,,,
24281,Kuriany,53.11119978029,23.32128220858,0,,,,
242822,Wieliczka Bogucice,49.99837435105,20.03712862462,0,,,,
242837,Tychy Grota Roweckiego,50.11395648009,18.98641749207,0,,,,
242838,Tychy Aleja Bielska,50.11715439773,18.98254536442,0,,,,
242839,Tychy Lodowisko,50.10765935728,19.00079358532,0,,,,
242843,Glinnik Wieś,51.8825705473,19.48152972751,0,,,,
242844,Domaniewice Centrum,52.01203319469,19.79204480957,0,,,,
242927,Pierwoszów Miłocin,51.25515827226,17.09906358532,0,,,,
242953,Zagrody Kościół,51.07852483401,23.19047218651,0,,,,
242954,Lublin Ponikwoda,51.26609978214,22.60603503439,0,,,,
242955,Lublin Zadębie,51.25799500005,22.60998288095,0,,,,
242974,Niemce,51.36291890987,22.64641670898,0,,,,
242975,Lubartów Lipowa,51.46414800452,22.5994082123,0,,,,
242976,Lubartów Słowackiego,51.47314710327,22.60518820398,0,,,,
242977,Parczew Kolejowa,51.6346649681,22.88088092527,0,,,,
24299,Zajezierce,53.10138172476,23.35805805637,0,,,,
243081,Lublin Airport,51.23498178221,22.71539751653,0,,,,
24323,Żednia,53.08702830397,23.46981780015,0,,,,
24331,Sokole Białostockie,53.0862875424,23.51135010435,0,,,,
24349,Waliły,53.1081649054,23.65107129355,0,,,,
243509,Wien Hauptbahnhof,48.18484462747,16.37810468674,0,,,AT,
2436,Barzkowice,53.32700984235,15.26425065989,0,,,,
24364,Lewickie,53.02805209369,23.12476246158,0,,,,
24372,Białystok Stadion,53.09799296238,23.1292194196,0,,,,
24380,Hołówki Duże,52.97136631736,23.09527816219,0,,,,
24398,Zimnochy,52.95480321897,23.0855189777,0,,,,
24414,Strabla,52.90154474544,23.11328791854,0,,,,
24422,Rajsk,52.82876277657,23.1486986597,0,,,,
24430,Bielsk Podlaski,52.7617180417,23.18770672342,0,,,,
2444,Sulino,53.31803723266,15.3152866603,0,,,,
24455,Lewki,52.73030237084,23.21155120283,0,,,,
2451,Ognica,53.31605057572,15.45341551872,0,,,,
24513,Gregorowce,52.66228641241,23.24183003885,0,,,,
24521,Podbiele,52.69186275759,23.21047422971,0,,,,
24539,Łapy,52.98997579471,22.88359562683,0,,,,
24547,Uhowo,53.00456775122,22.90920805889,0,,,,
24554,Bojary,53.0277775866,22.94979974275,0,,,,
24562,Baciuty,53.04686321417,22.98318241141,0,,,,
24570,Trypucie,53.07079841362,23.02498386002,0,,,,
24596,Niewodnica,53.08276362722,23.04586337635,0,,,,
24612,Klepacze,53.10261875846,23.08042288678,0,,,,
24638,Szepietowo,52.87006765067,22.54107530054,0,,,,
24646,Łapy Osse,52.97391019222,22.83962834115,0,,,,
24653,Zdrody Nowe,52.95412247536,22.7824251135,0,,,,
24661,Racibory,52.92992232747,22.7125818016,0,,,,
246776,Berlin Ostbahnhof,52.51047506371,13.43471288681,0,,,DE,
24687,Jabłoń Kościelna,52.90836875575,22.65055689084,0,,,,
2469,Sokoliniec,53.2940140269,15.50556047949,0,,,,
246940,Strasburg (Uckermark),53.51510737948,13.74505742328,0,,,DE,
24695,Szymbory,52.89403042638,22.60943074305,0,,,,
24711,Dąbrowa-Łazy,52.84042362734,22.45665549159,0,,,,
24729,Kity,52.8282804999,22.42224274993,0,,,,
24737,Czyżew,52.79971278558,22.34214662433,0,,,,
24745,Szulborze Wielkie,52.76059373232,22.22744992262,0,,,,
247482,Berlin Hauptbahnhof,52.52493988276,13.36949364418,0,,,DE,
247495,Cottbus-Sandow,51.75498392635,14.35360549808,0,,,DE,
2477,Recz Pomorski,53.27103294834,15.56352664676,0,,,,
247858,Jablonec nad Nisou centrum,50.72087754692,15.17377734722,0,,,CZ,
247860,Smržovka-Luční,50.73504034176,15.24956936176,0,,,CZ,
24802,Sokółka,53.40325782489,23.50737489028,0,,,,
248058,Berlin Gesundbrunnen,52.54874770663,13.39037981748,0,,,DE,900108
24836,Kundzin,53.43949596834,23.59077712249,0,,,,
24844,Czuprynowo,53.47224486644,23.63154489206,0,,,,
2485,Pęzino,53.33549265711,15.19549517214,0,,,,
24851,Gliniszcze,53.46581147083,23.5010527552,0,,,,
24869,Racewo,53.49795909662,23.48457830612,0,,,,
24877,Sidra,53.54476453004,23.44666271808,0,,,,
24885,Różanystok,53.62317198592,23.39223814144,0,,,,
24893,Dąbrowa Białostocka,53.64823698271,23.36495438078,0,,,,
24919,Kamienna Nowa,53.69120801043,23.26306948383,0,,,,
24927,Ostrowie Biebrzańskie,53.71963009642,23.24394815031,0,,,,
24935,Jastrzębna,53.74579686539,23.19831801078,0,,,,
24943,Balinka,53.76812163045,23.1608199315,0,,,,
249946,Desná-Pustinská,50.76416823245,15.33549994114,0,,,CZ,
249949,Desná-Riedlova vila,50.75926331926,15.31393827976,0,,,CZ,
25007,Kuźnica Białostocka,53.51153439649,23.64210453598,0,,,,
251555,Łódź Pabianicka,51.72641710553,19.4451013029,0,,,,
251556,Łódź Radogoszcz Zachód,51.82164942214,19.41554277867,0,,,,
251557,Ozorków Nowe Miasto,51.95881116578,19.269708,0,,,,
251558,Zgierz Jaracza,51.86398312085,19.42214655952,0,,,,
251561,Łódź Dąbrowa,51.73592584622,19.51061381349,0,,,,
251562,Ramiszów,51.19316914421,17.09829122454,0,,,,
251565,Warszawa Zacisze - Wilno,52.27795623182,21.08023411045,0,,,,
251575,Małaszewicze,52.02702328044,23.53101906754,0,,,,
251584,Kołobrzeg Stadion,54.17514277076,15.55921523677,0,,,,
251603,Warszawa Ursus Niedźwiadek,52.1913526495,20.86947281217,0,,,,
251842,Pałecznica,51.49045780759,22.65905083189,0,,,,
251843,Zabiele,51.5436432332,22.76371040874,0,,,,
25205,Czeremcha,52.51867068876,23.35354454233,0,,,,
25254,Dobrowoda,52.56148566886,23.39126533817,0,,,,
25262,Policzna,52.58936382777,23.42375289837,0,,,,
25296,Kleszczele,52.56101979067,23.32892890044,0,,,,
25312,Suchowolce,52.6170105616,23.28394220465,0,,,,
25320,Borowiki,52.48207606321,23.21520624537,0,,,,
25346,Nowy Nurzec,52.47256037859,23.17662271891,0,,,,
25353,Nurzec,52.46006477662,23.08304835449,0,,,,
25361,Sycze,52.42921479271,22.99842081349,0,,,,
25387,Siemiatycze,52.39102692267,22.9450162209,0,,,,
25403,Hajnówka,52.73340523923,23.58311622799,0,,,,
25437,Orzeszkowo,52.68168555944,23.53360467291,0,,,,
254531,Lębork Mosty,54.55021992997,17.7929913944,0,,,,
254532,Wrocław Grabiszyn,51.09659785733,16.97412514219,0,,,,
254539,Izbica,50.89063190852,23.15544673968,0,,,,
254692,Grąblewo,52.23542205145,16.39055923943,0,,,,
254956,Kobylany,52.03755200442,23.56063167725,0,,,,
257521,Gdańsk Rębiechowo,54.38745024741,18.4464659914,0,,,,
257530,Gdańsk Port Lotniczy,54.38286874433,18.4660080172,0,,,,
257531,Gdańsk Matarnia,54.37339867388,18.50649533464,0,,,,
257532,Gdańsk Jasień,54.35366498979,18.55015172024,0,,,,
257533,Gdańsk Brętowo,54.36528034553,18.57362381602,0,,,,
257534,Gdańsk Niedźwiednik,54.37803566944,18.57202487161,0,,,,
257535,Gdańsk Strzyża,54.39177971798,18.57887122223,0,,,,
257540,Gdańsk Firoga,54.37834223228,18.48605811059,0,,,,
257542,Gdańsk Kiełpinek,54.35534753227,18.52856516071,0,,,,
257551,Żukowo,54.34438504767,18.36209927116,0,,,,
25809,Rzepin,52.34991618475,14.81499390067,0,,,,
258130,Wrocław Różanka,51.13804682313,17.00373252646,0,,,,
258457,Zielona Góra Nowy Kisielin,51.91543020972,15.62704843915,0,,,,
258458,Gdańsk Śródmieście,54.3466251019,18.64421224537,0,,,,
258460,Kraków Sanktuarium,50.01381723595,19.93429615211,0,,,,
258461,Kraków Zakliki,50.07982130139,19.84899043769,0,,,,
258462,Kraków Młynówka,50.08170170367,19.85818371043,0,,,,
258463,Kraków Olszanica,50.07652676054,19.82562035054,0,,,,
258467,Zamość Starówka,50.71700579393,23.26270216325,0,,,,
258468,Zamość Wschód,50.72251787642,23.27600378741,0,,,,
258646,Warszawa Mokry Ług,52.2772554876,21.17047981349,0,,,,
258708,Sucha Beskidzka Zamek,49.74347611177,19.60342883527,0,,,,
258734,Łopuchowo Osiedle,52.61905210884,17.1098702037,0,,,,
258735,Przebędowo,52.5834889573,17.02349297421,0,,,,
25874,Drzeńsko,52.36984989296,14.77144092796,0,,,,
258747,Okuninka Białe,51.49173926919,23.58990326708,0,,,,
258748,Majdan Stuleński,51.35680013316,23.61112183884,0,,,,
258751,Ruda-Huta,51.23553876615,23.58880959347,0,,,,
25890,Jerzmanice Lubuskie,52.30663356713,14.86743763104,0,,,,
258924,Bydgoszcz Błonie,53.11778834395,17.95152335582,0,,,,
25908,Gądków Wielki,52.24621774924,14.9635560007,0,,,,
259135,Cierpice Kąkol,52.99195451886,18.44625605488,0,,,,
259152,Szymany Lotnisko,53.48905663179,20.94752749207,0,,,,
259156,Chmielów Zagumnie,50.52363490875,21.68586052513,0,,,,
25924,Kunowice,52.34179675959,14.63860609931,0,,,,
259546,Mokre,50.70803274125,23.20536256218,0,,,,
259553,Wólka Orłowska,50.92703027536,23.18342823677,0,,,,
25973,Boczów,52.32675015592,14.94622819615,0,,,,
25981,Torzym,52.31242204385,15.05958541691,0,,,,
260653,Gorzów Wielkopolski Wschodni,52.7318397516,15.24941829696,0,,,,
260659,Wrocław Popowice,51.12710048522,17.0013527968,0,,,,58644
260710,Gdynia Stadion,54.49586743918,18.53313176071,0,,,,
260711,Gdynia Karwiny,54.46938650857,18.50873873069,0,,,,
260715,Ryki,51.606333,21.92220593492,0,,,,
260901,Zaborów Błonia,49.92422069892,21.81951848651,0,,,,
260902,Jasło Fabryczne,49.7492937112,21.53372977379,0,,,,
260937,Kraków Bronowice,50.08298189422,19.89220045173,0,,,,
26104,Zbąszynek,52.24319855199,15.81866168851,0,,,,
261229,Subkowy Centrum,54.00254229452,18.76073815344,0,,,,
261233,Warszawa Koło,52.24619343106,20.95901317791,0,,,,
261251,Rzeszów Zachodni,50.05270823989,21.99420066138,0,,,,
261252,Markuszowa,49.87406100235,21.70559696693,0,,,,
261289,Jelenia Góra Przemysłowa,50.88770235221,15.7052317791,0,,,,
261290,Jelenia Góra Zabobrze,50.91033884333,15.7428272295,0,,,,
26146,Zbąszyń,52.25945349529,15.89568303348,0,,,,
26153,Zbąszyń Przedmieście,52.25699418388,15.92659965145,0,,,,
26161,Babimost,52.16850193898,15.81518693923,0,,,,
26187,Chrośnica,52.28137222425,15.99168317144,0,,,,
26195,Jastrzębsko,52.29515729322,16.06128426871,0,,,,
26211,Nowy Tomyśl,52.30412409838,16.13304662706,0,,,,
262191,Majdan Królewski Podlasek,50.3629543429,21.73667830675,0,,,,
262192,Huta Komorowska,50.38939441341,21.71572415582,0,,,,
262206,Radziszów Centrum,49.93693816072,19.8068883201,0,,,,
26237,Sątopy,52.30330322671,16.20345823258,0,,,,
26245,Porażyn,52.30229728497,16.28674150014,0,,,,
262505,Nysa Wschodnia,50.46590751209,17.35834975463,0,,,,
262506,Goszczowice,50.57280767147,17.62205001258,0,,,,
262507,Bogdanowo,52.62800803267,16.8180894705,0,,,,
262509,Złotkowo,52.51029398261,16.83059274789,0,,,,
262510,Złotniki Grzybowe,52.4846240814,16.84380785886,0,,,,
26252,Lutol Suchy,52.34393116459,15.7544919883,0,,,,
26260,Panowice,52.3605001406,15.73503600272,0,,,,
262771,Parzniew,52.15660840423,20.7634370172,0,,,,
26278,Bukowiec Międzyrzecki,52.3852131028,15.70660324082,0,,,,
262829,Zaklików Miasto,50.75496097548,22.09291528836,0,,,,
262832,Skawina Jagielnia,49.98127081687,19.84155097351,0,,,,
262833,Kraków Opatkowice,49.98835169109,19.89829864153,0,,,,
262834,Wałbrzych Centrum,50.77345966476,16.26989167061,0,,,,
262848,Lublin Zachodni,51.21886871976,22.50866684061,0,,,,
26286,Stefanowo,52.23611101049,15.97215119511,0,,,,
262870,Kraków Złocień,50.01808,20.05117,0,,,,
26294,Chociszewo Rogoziniec,52.30712295436,15.7699190461,0,,,,
26310,Dąbrówka Wielkopolska,52.27764717467,15.80016646389,0,,,,
26336,Belęcin Wielkopolski,52.20399369414,16.00804542328,0,,,,
263396,Grabniak,51.7124404877,21.70526916931,0,,,,
263407,Pisz Wschodni,53.62726992174,21.83101641133,0,,,,
26344,Tuchorza,52.16789732127,16.04730880489,0,,,,
263440,Olsztyn Śródmieście,53.78250845637,20.48149533862,0,,,,
263441,Olsztyn Dajtki,53.76577032635,20.43829237302,0,,,,
263452,Warszawa Targówek,52.26431716822,21.05156753345,0,,,,
263500,Iwiny,51.05461521533,17.06879875463,0,,,,
263501,Mokronos Górny,51.07884790164,16.90864886872,0,,,,
263502,Laski,51.60840882314,22.84183571297,0,,,,
263503,Berejów,51.51419832723,22.72155081666,0,,,,
263506,Wrocław Popiele,51.12232389459,17.11443006724,0,,,,
263507,Wrocław Strachocin,51.10991809259,17.14551955193,0,,,,
263508,Wrocław Wojnów Wschodni,51.09795532842,17.16841757029,0,,,,
263509,Nadolice Małe,51.08183447143,17.2189664787,0,,,,
263510,Chrząstawa Mała,51.07323516719,17.27632552117,0,,,,
263625,Szydłów Centrum,50.60528568292,17.71827929857,0,,,,
263905,Słupsk Północny,54.48340604131,17.01454458476,0,,,,
264159,Ustka Uroczysko,54.579668379,16.8452837222,0,,,,
264491,Goleniów Park Przemysłowy,53.52987229499,14.8103401038,0,,,,
264492,Szczecin Trzebusz,53.41190446927,14.71352845162,0,,,,
264493,Szczecin Dunikowo,53.38582242521,14.73910331458,0,,,,
264494,Szczecin Żydowce,53.35282859611,14.57462205523,0,,,,
264495,Szczecin Łasztownia,53.4186245339,14.55926180853,0,,,,
264520,Warszawa Powązki,52.25593086312,20.97169433995,0,,,,
264544,Białystok Nowe Miasto,53.10637829631,23.11402462566,0,,,,
264545,Hryniewicze,53.07260231049,23.128056,0,,,,
264546,Orzechowicze,52.81080243197,23.15877636909,0,,,,
264547,Mikłasze,52.72693750246,23.31597650528,0,,,,
264634,Lubin Stadion,51.40848619336,16.19925172024,0,,,,
264717,Burkatów,50.79357138253,16.47335145767,0,,,,
264718,Jedlina-Zdrój Centrum,50.72113075428,16.34459489815,0,,,,
264822,Praha-Zahradní Město,50.06212357583,14.50379344048,0,,,CZ,
264894,Szaniawy,51.94685973333,22.54441515871,0,,,,
264895,Kotuń,52.17628385342,22.0678263849,0,,,,39792
264896,Sokule,51.99794370436,22.95715495897,0,,,,
264901,Wrocław Szczepin,51.12283904723,17.01392233104,0,,,,
264913,Sieniawa Żarska,51.63655904775,15.06169933582,0,,,,41616
264914,Rzozów Centrum,49.95479917003,19.80434774816,0,,,,
264915,Wola Radziszowska Lipki,49.9103844322,19.79341232806,0,,,,
264927,Poraj,50.67686464976,19.21926008598,0,,,,
264952,Wadowice Osiedle Podhalanin,49.88781885752,19.48217908081,0,,,,
264954,Łódź Retkinia,51.74034966243,19.40656944841,0,,,,
264955,Łódź Warszawska,51.807740777,19.47143465012,0,,,,
264956,Łódź Radogoszcz Wschód,51.82676210796,19.44327681988,0,,,,
264957,Skoczów Bajerki,49.79863396252,18.80108483929,0,,,,
264958,Cieszyn Uniwersytet,49.75069091308,18.64923667725,0,,,,
264959,Ustroń Brzegi,49.70970550335,18.82127271164,0,,,,
264960,Wisła Jawornik,49.66946234527,18.84744093254,0,,,,
264969,Radom Północny,51.41959192244,21.18646554233,0,,,,
264970,Radom Gołębiów,51.41182168415,21.18806184292,0,,,,
26500,Skwierzyna,52.59049577374,15.49964522587,0,,,,
265022,Biała Podlaska Wschodnia,52.02062600362,23.16159365416,0,,,,
265023,Wieliszew Centrum,52.44377022859,20.9960461389,0,,,,
265053,Olsztyn Redykajny,53.79653829262,20.43517649174,0,,,,
265125,Miasteczko Śląskie Centrum,50.48692756998,18.91933678508,0,,,,
265126,Pyrzowice Lotnisko,50.46823696385,19.07596170366,0,,,,
265127,Mierzęcice,50.46305008213,19.12855981708,0,,,,
265130,Olsztyn Jezioro Ukiel,53.78388766436,20.44960141182,0,,,,
265204,Warka Miasto,51.78068461651,21.17769028471,0,,,,
265250,Warszawa Grochów,52.25549035164,21.08425497472,0,,,,
265251,Chabówka Stadion,49.5898110925,19.92032110155,0,,,,
265252,Bańska Niżna,49.39754090735,20.01608132244,0,,,,
265253,Poronin Misiagi,49.32974744156,19.99663531244,0,,,,
26534,Brzozowiec Gorzowski,52.65314029192,15.36781854661,0,,,,
265356,Nowy Sącz Dąbrówka,49.59742672081,20.67915678031,0,,,,
265357,Nowy Sącz Gorzków,49.59985267391,20.72200548525,0,,,,
265358,Dąbrówka Jezioro Mucharskie,49.81430931646,19.59977062587,0,,,,
26542,Trzebiszewo,52.62554105753,15.40551183623,0,,,,
26559,Deszczno,52.67173885707,15.30664662105,0,,,,
265648,Nowy Dwór koło Ornety,54.14403102175,20.14289616466,0,,,,
265664,Otomino,54.33065810018,18.37654351652,0,,,,
26567,Popowo Skwierzyńskie,52.53594732518,15.52218317215,0,,,,
265740,Częstochowa Gnaszyn,50.79166431561,19.02952870617,0,,,,62836
265741,Blachownia,50.77389639404,18.96960399627,0,,,,62844
265743,Świdnica Zawiszów,50.85975974362,16.47952583069,0,,,,
26583,Głębokie Międzyrzeckie,52.48470221148,15.53404329692,0,,,,
26708,Międzyrzecz,52.44527366544,15.59291895114,0,,,,
27201,Opalenica,52.30964531078,16.39967456997,0,,,,
27235,Buk,52.34354956913,16.5209083124,0,,,,
27243,Wojnowice Wielkopolskie,52.32686852762,16.46655480116,0,,,,
27250,Otusz,52.34669905447,16.59746832002,0,,,,
27268,Dopiewo,52.35384409933,16.67823172106,0,,,,
273,Szczecin Główny,53.41848158335,14.54975301866,0,,,,
27300,Sulechów,52.0925649714,15.61831231824,0,,,,
27334,Łęgowo Sulechowskie,52.13246525794,15.67489987212,0,,,,
27508,Czerwieńsk,52.01520259378,15.41226824802,0,,,,
27524,Będów,52.0734225375,15.31118191805,0,,,,
27532,Nietkowice,52.05755747291,15.35122890927,0,,,,
27540,Radnica,52.09007605759,15.26917697245,0,,,,
27557,Bytnica,52.13141346095,15.14807088539,0,,,,
27565,Budachów,52.15288689466,15.08167965535,0,,,,
27573,Pliszka,52.2046952675,15.01677758318,0,,,,
27615,Szczawno - Ciemnice,52.03947485176,15.23335396707,0,,,,
27623,Laski Odrzańskie,52.03602354257,15.30580214048,0,,,,
27631,Nietków,52.02583240973,15.34382427116,0,,,,
27656,Krosno Odrzańskie,52.0318946764,15.09384155005,0,,,,
27698,Wężyska,52.01273886656,14.95161473215,0,,,,
27805,Zielona Góra Główna,51.94743950846,15.51348489897,0,,,,
27839,Buchałów,51.91690279579,15.36265529563,0,,,,
27862,Letnica,51.8897548116,15.31922311905,0,,,,
27870,Koźla Kożuchowska,51.87239681351,15.31882530556,0,,,,
27888,Bogaczów,51.84386097801,15.26784444313,0,,,,
27896,Nowogród Bobrzański,51.8120305415,15.24438886375,0,,,,
27912,Nowogród Osiedle,51.79507580889,15.22561513359,0,,,,
27920,Zielona Góra Stary Kisielin,51.93666841144,15.58988838223,0,,,,
279322,Wietrzychowo,53.4192337567,20.39987454619,0,,,,
279350,Somonino Bernardyno,54.28726825691,18.20205509126,0,,,,
27938,Zielona Góra Przylep,51.97768859717,15.43871049736,0,,,,
279409,Mirków,51.16527730742,17.16500043333,0,,,,
279428,Koniecpol Centrum,50.77740729472,19.67327822356,0,,,,
279429,Dąbrówka Zabłotnia,51.30999824462,21.04601598421,0,,,,
279430,Kosów,51.34661046341,21.06464266509,0,,,,
279431,Tomaszówek,51.44907936699,20.12222169757,0,,,,
279432,Groszowice Wrzosów,51.42958997042,21.30093383536,0,,,,
279438,Oława Zachodnia,50.94538345982,17.26798352209,0,,,,
279439,Nikielkowo,53.80288260065,20.56528917549,0,,,,
279440,Kolno,53.99374730088,20.99174862698,0,,,,
27946,Niedoradz,51.86555640721,15.66430319408,0,,,,
279503,Legnica Strefa,51.16541437233,16.18544218651,0,,,,
279914,Wolbrom Zachodni,50.37984569342,19.75873410166,0,,,,
279915,Zator Park Rozrywki,50.00540147057,19.4053396529,0,,,,
279919,Białystok Zielone Wzgórza,53.11686060601,23.1054335779,0,,,,
28001,Gubin,51.97849017514,14.72135245264,0,,,,
280148,Radziszewo,53.31952435351,14.53315256953,0,,,,
280149,Piła Fabryczna,53.13912510437,16.77200585335,0,,,,
280150,Szczecinek Bugno,53.72348580967,16.6836838836,0,,,,
280151,Świdwin Zamek,53.77083850214,15.76550960272,0,,,,
280152,Kołobrzeg Ogrody,54.17644902989,15.59720634878,0,,,,
280153,Kołobrzeg Amfiteatr,54.1811238469,15.59568821847,0,,,,
280154,Kołobrzeg Radzikowo,54.16209790323,15.54317593038,0,,,,
280155,Koszalin Wschodni,54.21195058455,16.1842131561,0,,,,
280166,Koszalin Politechnika,54.20417310565,16.17396711767,0,,,,
280181,Jastrowie Miasto,53.42442415494,16.81117398262,0,,,,
280182,Mielec Południowy,50.25826985952,21.48355335751,0,,,,
280183,Przemyśl Wschodni,49.78463063724,22.80499642199,0,,,,
280236,Wodzisław Śląski Centrum,49.99837655338,18.46382737434,0,,,,
280237,Pawłowice Śląskie Centrum,49.96381668147,18.72492014618,0,,,,
280239,Żarnowa,49.87742883723,21.81884323831,0,,,,
280244,Lutoryż,49.96600278352,21.92261706862,0,,,,
280245,Boguchwała Dolna,49.99441968253,21.94361516798,0,,,,
280246,Rzeszów Politechnika,50.02756567401,21.98395907342,0,,,,
280247,Rzeszów Centrum,50.04313999014,21.99850737512,0,,,,
280253,Kolbuszowa Górna,50.22265755517,21.80548672024,0,,,,
280254,Rzeszów Staromieście,50.06259576799,21.99238362698,0,,,,
280255,Głogów Małopolski Niwa,50.13665486389,21.9647480086,0,,,,
280256,Rzeszów Pobitno,50.05245355583,22.03183935316,0,,,,
280257,Rzeszów Baranówka,50.06438113637,21.98907136381,0,,,,
280258,Rzeszów Dworzysko,50.07791931002,21.96838616788,0,,,,
280259,Sędziszów Małopolski Wschodni,50.06984231432,21.7289668268,0,,,,
280295,Chorzelów Południowy,50.32379883757,21.43871622933,0,,,,
280299,Strzyżów Zachodni,49.86870944373,21.77269756258,0,,,,
280301,Błonie Rokitno,52.18937177831,20.64123304663,0,,,,
280327,Tuchola Rudzki Most,53.57654274046,17.89149250793,0,,,,
280328,Grudziądz Śródmieście,53.48237361559,18.74795326389,0,,,,
280329,Grudziądz Tuszewo,53.48647687984,18.81257696996,0,,,,
280330,Gregorowce Południowe,52.64787128082,23.25801530978,0,,,,
280343,Jedlicze koło Zgierza,51.86878760954,19.321662602,0,,,,
280344,Zgierz Rudunki,51.86120787296,19.43737863421,0,,,,
280345,Studniska,51.10987477761,15.0856337619,0,,,,
280346,Pabianice Północne,51.670219699,19.34224605024,0,,,,
280347,Wronki Zamość,52.71028959142,16.36117994249,0,,,,
280387,Żurawnica,50.64212654875,22.9600310111,0,,,,
280388,Aleksandrów,51.90437184604,22.48190150594,0,,,,
280397,Szczebrzeszyn,50.68085834288,22.98769263267,0,,,,
280410,Piekoszów,50.87591367548,20.48382638812,0,,,,
280416,Adamowo,52.10372716493,16.1547909914,0,,,,
280417,Izabelów,51.61000349103,18.91165559508,0,,,,
280420,Jasionka Lotnisko,50.11554925074,22.02219128072,0,,,,
280424,Głogów Małopolski Południowy,50.11348871411,21.98591172159,0,,,,
280427,Obłaczkowo,52.29438901433,17.53438332275,0,,,,
280442,Łagiewniki,51.30518435787,22.61726615667,0,,,,
280443,Chorzów Uniwersytet,50.29307614001,18.94140702579,0,,,,
280444,Bytom Stroszek,50.38414297629,18.88401204166,0,,,,
280447,Trzeciewnica,53.15314675507,17.64066337466,0,,,,
280448,Grudziądz Rządz,53.45112418088,18.73357259392,0,,,,
280478,Rzepin Miasto,52.34587616577,14.82519149244,0,,,,
280487,Żary Muzyków,51.64164390735,15.1165813154,0,,,,
280494,Podchojny,50.66438635965,20.32097847893,0,,,,
280495,Józefin,52.22934340872,21.33240315809,0,,,,
28050,Wałowice,51.98453324488,14.79331075608,0,,,,
280514,Mnichów,50.70792278716,20.33366241964,0,,,,
280600,Grabik,51.65564881923,15.11632054418,0,,,,
280601,Ustrzesz,51.80222327338,22.72969590116,0,,,,
280602,Pisary,50.12851930743,19.68327819765,0,,,,
280603,Kraków Piastów,50.1069994668,20.01287840718,0,,,,
280604,Kraków Przylasek,50.05199455408,20.16358512752,0,,,,
280605,Kraków Kościelniki,50.08784671076,20.16887604654,0,,,,
280623,Medyka,49.80279330828,22.94004673408,0,,,,84509
280628,Dąbrowa Chełmińska Centrum,53.18128,18.29391,0,,,,
280915,Łódź Zarzew,51.75086864278,19.51313923949,0,,,,
280916,Kunice,51.21500344108,16.25448043915,0,,,,
280933,Głowno Północne,51.97898557611,19.72171434589,0,,,,
280949,Bezwola,51.77177649126,22.80434608047,0,,,,
280951,Biała Szlachecka,51.17518661906,19.02507248364,0,,,,
280952,Stary Broniszew,50.98346336302,19.16073933232,0,,,,
280953,Cykarzew Północny,50.96417971815,19.16342179726,0,,,,
280954,Nowa Brzeźnica,51.07527936836,19.14661256793,0,,,,
280955,Sosnowiec Jęzor Południowy,50.22865473211,19.16541874141,0,,,,
280983,Widzów Teklinów,50.98130615046,19.36742516675,0,,,,63438
28100,Świebodzin,52.24530528201,15.54018141065,0,,,,
281040,Zabrze Maciejów,50.3060409787,18.74744233366,0,,,,
281058,Repczyce,52.54537203533,23.35557340707,0,,,,
281131,Mielec Wolności,50.27869799736,21.44831476576,0,,,,
281226,Radom Wschodni,51.39927259303,21.17401778162,0,,,,
28134,Szczaniec,52.26438119906,15.69424094912,0,,,,
281383,Śniadowo Stara Stacja,53.04492432807,22.0238659407,0,,,,
281389,Konarzyce,53.14467073957,22.04594651409,0,,,,
281404,Bielawa Góry Sowie,50.66338027276,16.59915625513,0,,,,
281405,Bielawa Jezioro,50.67925052779,16.58857762277,0,,,,
28142,Kupienino,52.25740022755,15.61404059319,0,,,,
28159,Wilkowo Świebodzińskie,52.25635571548,15.46921005526,0,,,,
28167,Mostki,52.26883951642,15.39598401668,0,,,,
28183,Toporów,52.2602705031,15.2616373635,0,,,,
28233,Drzewce,52.26945013435,15.16166589412,0,,,,
28464,Poznań Antoninek,52.4096710874,17.02813781349,0,,,,
28472,Swarzędz,52.40418947752,17.0736819452,0,,,,
28498,Paczkowo,52.39692963981,17.15894244907,0,,,,
28522,Poznań Starołęka,52.36673584877,16.93316366178,0,,,,
28555,Poznań Dębina,52.37340668663,16.91072688221,0,,,,
28563,Poznań Krzesiny,52.341777407,16.9753880341,0,,,,
28647,Złotniki,52.49567078597,16.83610570285,0,,,,
28654,Poznań Podolany,52.44744108355,16.88075408347,0,,,,
28670,Wargowo,52.58416893947,16.8227555052,0,,,,
28688,Golęczewo,52.53491958401,16.82797327846,0,,,,
28696,Chludowo,52.56006584796,16.82530114263,0,,,,
28720,Poznań Górczyn,52.38022615808,16.88137726116,0,,,,
28738,Poznań Junikowo,52.37787840959,16.82562387799,0,,,,
28753,Palędzie,52.37456507528,16.74918662003,0,,,,
28803,Szamotuły,52.60283919382,16.58667754389,0,,,,
28936,Baborówko,52.58035691458,16.63176128012,0,,,,
28944,Pamiątkowo,52.5537408089,16.68493140689,0,,,,
28951,Pęckowo,52.66397540777,16.48926012408,0,,,,
28969,Wronki,52.70508207887,16.38586900418,0,,,,
28985,Mokrz,52.74112831677,16.27811697468,0,,,,
28993,Miały,52.80930643349,16.17592751756,0,,,,
29017,Drawski Młyn,52.8604127165,16.0937563409,0,,,,
29108,Krzyż,52.87738056072,16.01794189538,0,,,,
29132,Stare Bielice,52.85347900123,15.9221403149,0,,,,
29157,Drawiny,52.89690708495,15.95024913163,0,,,,
29165,Podlesiec,52.93686547856,15.87605303606,0,,,,
29173,Mierzęcin,52.95103169807,15.82711074067,0,,,,
29181,Dobiegniew,52.96864780224,15.74627182799,0,,,,
29199,Bierzwnik,53.02409824017,15.65797509909,0,,,,
29215,Nowe Drezdenko,52.85381062199,15.83407429203,0,,,,
29223,Wieleń,52.90747049724,16.18013012138,0,,,,
29231,Biernatowo,52.95706228376,16.34270141863,0,,,,
29249,Siedlisko Czarnkowskie,52.98362926186,16.39855716905,0,,,,
29405,Choszczno,53.16524892098,15.40335939926,0,,,,
29439,Stary Klukom,53.13193452891,15.45507123836,0,,,,
29447,Słonice,53.09189843212,15.51599820007,0,,,,
29454,Rębusz,53.05408389676,15.59023423764,0,,,,
29488,Ziemomyśl,53.16708838218,15.30216935953,0,,,,
29603,Oborniki Wielkopolskie,52.65766909515,16.8297475029,0,,,,
29637,Parkowo,52.70799029041,16.91481114587,0,,,,
29645,Oborniki Wielkopolskie Miasto,52.64561481549,16.8202492644,0,,,,
29652,Rożnowo,52.67878730221,16.87102318529,0,,,,
29801,Poznań Wschód,52.41845093624,16.97216823949,0,,,,
29835,Poznań Karolin,52.438169177,16.98135615211,0,,,,
29843,Czerwonak,52.46839928029,16.97968655952,0,,,,
29850,Owińska,52.51153631152,16.98756586012,0,,,,
29868,Bolechowo,52.5396068649,16.97922947487,0,,,,
29876,Murowana Goślina,52.57496849809,17.01566807606,0,,,,
29884,Łopuchowo,52.61353468757,17.09497384789,0,,,,
29892,Poznań Garbary,52.41634597356,16.93745565332,0,,,,
2998,Szczecinek Chyże,53.71837857917,16.69680391774,0,,,,
30007,Września,52.32755673486,17.55531548381,0,,,,
30031,Podstolice,52.34163192531,17.48050320503,0,,,,
3004,Szczecinek,53.69353652129,16.70497103387,0,,,,
30049,Nekla,52.35437085317,17.40162833401,0,,,,
30064,Kostrzyn Wielkopolski,52.39325035856,17.22547081482,0,,,,
30072,Gutowo Wielkopolskie,52.33239966852,17.64377927116,0,,,,
30080,Otoczna,52.32518378135,17.69240480293,0,,,,
30098,Wólka,52.32169278881,17.75341682209,0,,,,
30114,Strzałkowo,52.31046597903,17.80684003174,0,,,,
3012,Iwin,53.79511740076,16.51540527652,0,,,,
30122,Słupca,52.28741036413,17.85207509458,0,,,,
30148,Gułtowy,52.36820585607,17.31630880489,0,,,,
3020,Łubowo,53.58389986221,16.38972966503,0,,,,
30205,Środa Wielkopolska,52.21817178112,17.27455870753,0,,,,
30221,Pierzchno,52.26311281639,17.15795507941,0,,,,
30239,Gądki,52.30204721336,17.04527044104,0,,,,
30247,Kórnik,52.28198864559,17.10344812142,0,,,,
30262,Sulęcinek,52.13866580155,17.30881708466,0,,,,
30270,Solec Wielkopolski,52.10977178215,17.31959222659,0,,,,
30288,Chocicza,52.06985432781,17.34996730267,0,,,,
3038,Dalęcino,53.74782443233,16.60866842447,0,,,,
30403,Luboń koło Poznania,52.34442282247,16.89298218317,0,,,,
30411,Puszczykowo,52.29568824412,16.87114601189,0,,,,
30429,Puszczykówko,52.27293326149,16.863760241,0,,,,
30452,Mosina,52.24044951629,16.85171965576,0,,,,
3046,Przeradz,53.77053346941,16.53670844055,0,,,,
30460,Drużyna Poznańska,52.21034790757,16.82392396386,0,,,,
30478,Iłowiec,52.18366488811,16.79936968034,0,,,,
30486,Szreniawa,52.31765610149,16.80025851059,0,,,,
30494,Wiry,52.31528902841,16.86825384789,0,,,,
30510,Trzebaw Rosnówko,52.29653750814,16.7675337619,0,,,,
3053,Gwda Mała,53.7319923397,16.82800727407,0,,,,
30536,Stęszew,52.28048274656,16.70989930093,0,,,,
30585,Poznań Dębiec,52.36888692663,16.90132480897,0,,,,
30601,Poznań Główny,52.40162478054,16.91155849814,0,,,,
30643,Poznań Strzeszyn,52.46051520393,16.86573201215,0,,,,
30650,Poznań Wola,52.43348580802,16.85049296088,0,,,,
30668,Kiekrz,52.47617335721,16.7895177609,0,,,,
30676,Rokietnica,52.51096657046,16.75561645974,0,,,,
3079,Drzonowo,53.8068958437,16.86624068576,0,,,,
30809,Gniezno,52.52968955788,17.60357013519,0,,,,
3087,Biały Bór,53.88677179407,16.85543719142,0,,,,
30874,Gębarzewo,52.48315291228,17.57023416931,0,,,,
30882,Żydowo,52.45321345655,17.56809072884,0,,,,
30890,Czerniejewo,52.42403776661,17.56515,0,,,,
30916,Marzenin,52.38568487256,17.56131781349,0,,,,
30932,Pierzyska,52.50559825426,17.48192901708,0,,,,
30940,Fałkowo,52.49853092359,17.42452756686,0,,,,
3095,Silnowo,53.6348794314,16.49167917023,0,,,,
30957,Lednogóra,52.49092619848,17.36319366298,0,,,,
30965,Pobiedziska,52.47931618166,17.2779332498,0,,,,
30973,Biskupice Wielkopolskie,52.46684217519,17.1687384091,0,,,,
30981,Pobiedziska Letnisko,52.47428301863,17.23967226492,0,,,,
30999,Promno,52.47164939153,17.21448467858,0,,,,
31021,Kobylnica,52.44588799818,17.07973860186,0,,,,
31039,Ligowiec,52.43509148773,17.03697902747,0,,,,
3111,Jelenino,53.6593717778,16.62551953113,0,,,,
31203,Sława Wielkopolska,52.63442022337,17.14396903802,0,,,,
31252,Skoki,52.67439591431,17.16211172024,0,,,,
31302,Wągrowiec,52.8095724261,17.20271810318,0,,,,
31336,Kobylec,52.84840535598,17.20092728836,0,,,,
31344,Grylewo,52.88872333891,17.22788510185,0,,,,
31351,Laskownica,52.9159911627,17.25101364418,0,,,,
31369,Gołańcz,52.94748,17.30562740608,0,,,,
3137,Czarne,53.68000194859,16.93842057707,0,,,,
3145,Czarnobór,53.69975121328,16.76772324553,0,,,,
31468,Przysieczyn,52.75399142861,17.18402364418,0,,,,
31476,Roszkowo Wągrowieckie,52.70887487994,17.17621903803,0,,,,
3152,Żółtnica,53.69527582444,16.81214325734,0,,,,
3160,Domisław,53.66799334249,17.03262077771,0,,,,
3178,Bińcze,53.66011100599,17.12897648689,0,,,,
3186,Biskupnica,53.65507859635,17.21155373612,0,,,,
3194,Lotyń,53.5999227264,16.77974633886,0,,,,
32003,Mogilno,52.65857188473,17.94605076941,0,,,,
32045,Wydartowo,52.61155682779,17.90430715143,0,,,,
32060,Jankowo Dolne,52.53882532998,17.71952715989,0,,,,
32078,Trzemeszno,52.56990511104,17.81799042266,0,,,,
3210,Turowo Pomorskie,53.64698505017,16.72320148217,0,,,,
32201,Kutno,52.22701929483,19.34870615211,0,,,,
32227,Krzewie,52.23540876174,19.16623948932,0,,,,
32235,Nowe Kutnowskie,52.23771,19.22653,0,,,,
32243,Turzynów,52.23047401267,19.02588485599,0,,,,
32250,Kłodawa,52.2273854086,18.89056204677,0,,,,
32276,Ostrowy,52.29923699789,19.19158677795,0,,,,
3228,Brokęcino,53.56262194503,16.81766735248,0,,,,
32318,Strzelce Kujawskie,52.32286831678,19.36866042852,0,,,,
32326,Kutno Azory,52.2400209672,19.30402505886,0,,,,
32334,Raciborów Kutnowski,52.28048275836,19.34161654233,0,,,,
32342,Sierakówek,52.37094205994,19.42074892759,0,,,,
32359,Gostynin,52.43336054116,19.4761607877,0,,,,
3236,Okonek,53.52026430861,16.8306187619,0,,,,
32367,Rogożew,52.46174972358,19.5412909828,0,,,,
32383,Łąck,52.48703747043,19.59615905026,0,,,,
32417,Płock Radziwie,52.5242193615,19.67225016071,0,,,,
32433,Żychlin,52.21311918462,19.61909293056,0,,,,
32441,Sklęczki,52.22541341187,19.40559196295,0,,,,
32458,Złotniki Kutnowskie,52.22506240609,19.49207188361,0,,,,
32466,Zosinów,52.18572046737,19.71620722817,0,,,,
32474,Jackowice,52.15718246382,19.79475847487,0,,,,
32482,Niedźwiada Łowicka,52.1403002923,19.88423479266,0,,,,
3251,Rzęśnica,53.52450325105,15.95202160616,0,,,,
32516,Witonia,52.15693325031,19.27661239564,0,,,,
32524,Łęczyca,52.04922785545,19.19323861063,0,,,,
32532,Sierpów,52.01848268246,19.2224611786,0,,,,
32540,Ozorków,51.97250907933,19.26593183935,0,,,,
32557,Chociszew,51.92387673676,19.26725956812,0,,,,
32581,Gawrony,52.11247119463,19.21974230556,0,,,,
32607,Płock,52.55274238269,19.71269974603,0,,,,
32623,Płock Trzepowo,52.58890905413,19.73371831283,0,,,,
32706,Sierpc,52.84789825922,19.65378252646,0,,,,
32722,Koziołek,52.86588295363,19.49862688095,0,,,,
32748,Podwierzbie,52.86482,19.57912145767,0,,,,
3277,Jankowo Pomorskie,53.5166603593,15.77440498429,0,,,,
32805,Zawidz,52.82950564505,19.84339880357,0,,,,
32821,Mieszaki,52.83675616524,19.74517082209,0,,,,
32839,Zawidz Kościelny,52.82413839021,19.87778459126,0,,,,
32847,Gozdowo,52.7294397652,19.69569988095,0,,,,
32862,Susk,52.78510142233,19.6831260086,0,,,,
32870,Proboszczewice Płockie,52.66034801731,19.71377777777,0,,,,
32904,Łowicz Główny,52.10521690787,19.95498597086,0,,,,
32953,Bednary,52.10546073288,20.06451665283,0,,,,
32961,Jasionna Łowicka,52.12461364118,20.12365507606,0,,,,
32979,Kęszyce,52.13823272766,20.14796554506,0,,,,
33001,Nowa Sucha,52.1584866138,20.16764758945,0,,,,
3301,Złocieniec,53.52796836384,16.01818888846,0,,,,
33019,Bobrowniki,52.05865220009,20.01037358165,0,,,,
33027,Bełchów,52.02646203805,20.03315626502,0,,,,
33035,Mokra,51.97876773477,20.0995302093,0,,,,
33043,Sierakowice Skierniewickie,51.99866800531,20.06166814685,0,,,,
33050,Łowicz Przedmieście,52.09305647898,19.94679990675,0,,,,
33068,Mysłaków,52.09239292287,20.01630259657,0,,,,
33100,Konin,52.23132169834,18.25252889514,0,,,,
33142,Patrzyków,52.22936985715,18.36808215477,0,,,,
33159,Kramsk,52.24516970729,18.476734459,0,,,,
33175,Budki Nowe,52.24444912285,18.56348253967,0,,,,
33191,Koło,52.21107796102,18.63200246215,0,,,,
33217,Barłogi,52.21596885199,18.76799582362,0,,,,
3327,Suliszewo Drawskie,53.5171698653,15.89307789623,0,,,,
33324,Spławie,52.25770626896,18.09115145767,0,,,,
33332,Kawnice,52.24984597884,18.1508517791,0,,,,
3335,Drawsko Pomorskie,53.52311872829,15.82372312511,0,,,,
33357,Konin Zachód,52.23707537515,18.22112539616,0,,,,
33365,Cienin,52.27255847568,17.96600743782,0,,,,
33373,Cienin Kościelny,52.27007282704,18.00948,0,,,,
3343,Bobrowo Pomorskie,53.52826912691,16.07851881144,0,,,,
33449,Warszawa Gołąbki,52.20844831988,20.86436281482,0,,,,
33456,Warszawa Aleje Jerozolimskie,52.20543248688,20.94148151787,0,,,,
33472,Warszawa Główna,52.22514314412,20.98546389815,0,,,,
33498,Warszawa Ochota,52.22580542435,20.99078633862,0,,,,
3350,Żelisławie Pomorskie,53.52406996992,16.15012438252,0,,,,
33506,Warszawa Zachodnia,52.22005750107,20.96523811276,0,,,,
33514,Warszawa Włochy,52.20626871726,20.91497539401,0,,,,
33530,Warszawa Ursus,52.19648425748,20.88534235418,0,,,,
33548,Warszawa Ursus Północny,52.20569204427,20.88977133499,0,,,,
33555,Warszawa Rakowiec,52.19681659314,20.96603470304,0,,,,
33563,Warszawa Służewiec,52.18086526898,20.98701819241,0,,,,
33571,Warszawa Śródmieście,52.22938671429,21.00759854233,0,,,,
33605,Warszawa Centralna,52.22884143194,21.0032749828,0,,,,
33639,Warszawa Powiśle,52.23371763214,21.02817669242,0,,,,
33647,Warszawa Stadion,52.2448233422,21.04395746648,0,,,,
3368,Czaplinek,53.53741934852,16.23877050197,0,,,,
3376,Czarne Małe,53.5574379698,16.31910175181,0,,,,
33803,Warszawa Okęcie,52.16596885644,20.98736381349,0,,,,
33845,Warszawa Dawidy,52.12854932542,20.99116172884,0,,,,
33878,Warszawa Jeziorki,52.11030334732,20.99319855704,0,,,,
33902,Piaseczno,52.06656150582,21.01725960979,0,,,,
33910,Nowa Iwiczna,52.09134289942,20.99532493121,0,,,,
33928,Zalesie Górne,52.02664042676,21.04168389815,0,,,,
33936,Ustanówek,51.99678566986,21.0600625582,0,,,,
34108,Pruszków,52.16825322977,20.79886836309,0,,,,
34124,Piastów,52.18262583466,20.84266304434,0,,,,
34132,Brwinów,52.14171320914,20.7182313201,0,,,,
34140,Milanówek,52.12484226231,20.66716466005,0,,,,
34165,Grodzisk Mazowiecki,52.11021993141,20.62252647354,0,,,,
34207,Żyrardów,52.05234533554,20.44856070399,0,,,,
34223,Sucha Żyrardowska,52.02289712281,20.35942553938,0,,,,
34231,Jesionka,52.0148222069,20.33472775877,0,,,,
34249,Radziwiłłów Mazowiecki,52.00029293561,20.29034792304,0,,,,
34322,Jaktorów,52.08676410864,20.55203651191,0,,,,
34330,Międzyborów,52.06360272882,20.48246919036,0,,,,
34348,Ożarów Mazowiecki,52.20740985064,20.79627733862,0,,,,
34355,Płochocin,52.20006655554,20.70204554915,0,,,,
34363,Błonie,52.18653866675,20.60834904299,0,,,,
34371,Witanów,52.18594271107,20.57413988955,0,,,,
34397,Boża Wola,52.18988116076,20.52694290608,0,,,,
34439,Seroki,52.19645217796,20.46781182209,0,,,,
34447,Teresin-Niepokalanów,52.20210492946,20.41658183929,0,,,,
34462,Piasecznica,52.21003266044,20.3442495954,0,,,,
34603,Sochaczew,52.21517565534,20.23901892527,0,,,,
34629,Kornelin,52.18316196692,20.2062338537,0,,,,
3467,Runowo Pomorskie,53.55566783884,15.52945065248,0,,,,
3475,Worowo,53.68864995204,15.63527255528,0,,,,
3483,Klępnica,53.71758441586,15.65515462146,0,,,,
34835,Warszawa Młynów,52.23895144989,20.95845,0,,,,
34850,Warszawa Wola,52.22986288041,20.95783977628,0,,,,
34868,Warszawa Zachodnia (Peron 9),52.22223604539,20.96142072884,0,,,,
3509,Łobez,53.63665778088,15.62768048243,0,,,,
3517,Chociwel,53.47076432765,15.33607448192,0,,,,
3525,Lisowo,53.43126809724,15.29760198872,0,,,,
3541,Trąbki,53.39574135935,15.23873798109,0,,,,
3558,Cieszyno Łobeskie,53.52071910034,15.46933073467,0,,,,
3574,Węgorzyno,53.5434529612,15.56063978617,0,,,,
3582,Wiewiecko,53.52623126379,15.6507405891,0,,,,
36103,Warszawa Gdańska,52.25911858243,20.99311973016,0,,,,
36111,Warszawa ZOO,52.26357245135,21.01800065278,0,,,,
36137,Warszawa Toruńska,52.294097465,21.01308769444,0,,,,
36145,Warszawa Żerań,52.31413273668,20.99893625397,0,,,,
36152,Warszawa Płudy,52.33402917298,20.98591253373,0,,,,
36160,Warszawa Choszczówka,52.35785951492,20.97227694114,0,,,,
36228,Zielonka,52.31171045037,21.15742133862,0,,,,
36236,Zielonka Bankowa,52.29144304482,21.15404068887,0,,,,
3624,Lesięcin,53.58619405597,15.57081771158,0,,,,
3632,Świdwin,53.78111392914,15.77274066944,0,,,,
36327,Kobyłka-Ossów,52.32725015223,21.19327126257,0,,,,
36335,Kobyłka,52.33686322295,21.21546406746,0,,,,
36343,Wołomin,52.34664299751,21.23811721265,0,,,,
36350,Wołomin Słoneczna,52.3543423823,21.25593711045,0,,,,
36368,Zagościniec,52.36484089728,21.28048235582,0,,,,
36384,Dobczyn,52.37884350575,21.31305718881,0,,,,
36418,Klembów,52.39593479727,21.35294258058,0,,,,
36426,Jasienica Mazowiecka,52.41540055703,21.39849016071,0,,,,
36459,Nowy Dwór Mazowiecki,52.42529479678,20.72381501454,0,,,,
36467,Modlin,52.44367451743,20.70438260482,1,,,,
36467_BUS,Modlin,52.44305113398,20.70369243354,0,36467,,,
36467_RAIL,Modlin,52.44367451743,20.70438260482,0,36467,,,
36475,Pomiechówek,52.47336511222,20.7434919828,0,,,,
36483,Brody Warszawskie,52.5138846715,20.74809466138,0,,,,
36491,Studzianki Nowe,52.53789470381,20.75146793783,0,,,,
36509,Legionowo,52.40140810951,20.94165234261,0,,,,
36517,Legionowo Przystanek,52.41124919955,20.91432283069,0,,,,
36525,Legionowo Piaski,52.41268698697,20.94283974603,0,,,,
36541,Janówek,52.42530122016,20.77844407606,0,,,,
36574,Michałów-Reginów,52.42251866489,20.96262843188,0,,,,
36582,Wieliszew,52.42826658052,20.97487970304,0,,,,
36624,Nieporęt,52.43067437521,21.03221116204,0,,,,
36640,Dąbkowizna,52.423811,21.08566847487,0,,,,
36707,Nasielsk,52.57283001138,20.76804374603,0,,,,
36731,Wkra,52.58488737645,20.57068059853,0,,,,
36749,Cieksyn,52.57749132199,20.66418372618,0,,,,
36756,Dalanówek,52.59443655148,20.46385520636,0,,,,
36764,Płońsk,52.61603973898,20.3660787619,0,,,,
36772,Arcelin,52.65979204524,20.31837039385,0,,,,
36780,Baboszewo,52.68318383552,20.26032997819,0,,,,
36798,Kaczorowo,52.72691375615,20.17345192394,0,,,,
36814,Raciąż,52.77895585818,20.10491857805,0,,,,
36822,Koziebrody,52.80202198507,19.97262417197,0,,,,
36830,Świercze,52.67043360135,20.7628119914,0,,,,
36848,Kątne,52.60665542278,20.76224554233,0,,,,
36855,Jackowo Dworskie,52.6311592323,20.77500776687,0,,,,
36863,Kałęczyn,52.70738724687,20.7473802352,0,,,,
36871,Gąsocin,52.73864749009,20.72033869179,0,,,,
36889,Gołotczyzna,52.78447746879,20.68189153373,0,,,,
36913,Ciechanów Przemysłowy,52.86471481594,20.61534234722,0,,,,
36939,Ciechanów,52.88339915431,20.59131914352,0,,,,
36947,Czeruchy,52.93618698985,20.50594197421,0,,,,
36962,Krośnice Mazowieckie,52.96759397421,20.49117028177,0,,,,
36970,Konopki,52.99653585036,20.45983740741,0,,,,
36988,Stupsk Mazowiecki,53.02115468581,20.43404297421,0,,,,
37028,Wyszyny,53.06118790955,20.39208725397,0,,,,
37218,Mława Miasto,53.10853971369,20.36422754233,0,,,,
37226,Mława,53.12646126612,20.35064938756,0,,,,
37440,Warszawa Wileńska,52.25569643758,21.03832098148,0,,,,
37457,Ząbki,52.29244466016,21.1133249828,0,,,,
37507,Tłuszcz,52.4311589486,21.43562146165,0,,,,
37622,Krusze,52.42716218683,21.35799111772,0,,,,
37762,Wyszków,52.60195039211,21.44662364418,0,,,,
37770,Jarzębia Łąka,52.4578693739,21.44772647738,0,,,,
37788,Grzegorzewo,52.48556387098,21.42862843188,0,,,,
37796,Mostówka,52.51886027542,21.44195188095,0,,,,
37820,Lucynów,52.55328122535,21.45934647487,0,,,,
37838,Rybienko,52.58226802733,21.4582192871,0,,,,
37911,Łochów,52.53397373547,21.68755579762,0,,,,
37929,Barchów,52.51765311472,21.64751419511,0,,,,
37937,Urle,52.50737696309,21.622328,0,,,,
37945,Szewnica,52.48336926362,21.563417,0,,,,
37994,Mokra Wieś,52.457494,21.50001791534,0,,,,
38125,Chrzęsne,52.44715012197,21.47472502579,0,,,,
38133,Ostrówek Węgrowski,52.55968829502,21.75069808423,0,,,,
38141,Topór,52.58478600522,21.81249780622,0,,,,
38158,Sadowne Węgrowskie,52.60542261105,21.8587312832,0,,,,
38174,Radzymin,52.42428373273,21.17749396445,0,,,,
3830,Rąbino,53.86938885838,15.95240745321,0,,,,
38307,Małkinia,52.69415895659,22.03357172883,0,,,,
38323,Kietlanka,52.74397487284,22.17875457539,0,,,,
38356,Zaręby Kościelne,52.73097000613,22.14081725397,0,,,,
38372,Prostyń,52.659234,21.961007,0,,,,
38539,Warszawa Gocławek,52.23872182909,21.13266616524,0,,,,
38653,Warszawa Wschodnia,52.25143798823,21.05225084066,0,,,,
38661,Warszawa Rembertów,52.2571282693,21.15821974471,0,,,,
38679,Warszawa Wesoła,52.25408728389,21.22408961227,0,,,,
38687,Warszawa Wola Grzybowska,52.25282706189,21.25086482209,0,,,,
38711,Sulejówek,52.247739051,21.27710226505,0,,,,
38729,Sulejówek Miłosna,52.24048288352,21.29895841601,0,,,,
38737,Warszawa Wawer,52.22338255687,21.14955292394,1,,,,
38737_BUS_N,Warszawa Wawer,52.22333374936,21.14903032511,0,38737,,,
38737_BUS_S,Warszawa Wawer,52.22257628228,21.14933341473,0,38737,,,
38737_RAIL,Warszawa Wawer,52.22338255687,21.14955292394,0,38737,,,
38745,Warszawa Olszynka Grochowska,52.24982598942,21.10670472884,0,,,,
38760,Warszawa Anin,52.21303183538,21.15989691534,1,,,,
38760_BUS_N,Warszawa Anin,52.21452596039,21.15824639261,0,38760,,,
38760_BUS_S,Warszawa Anin,52.21348074095,21.15893303812,0,38760,,,
38760_RAIL,Warszawa Anin,52.21303183538,21.15989691534,0,38760,,,
38778,Warszawa Międzylesie,52.20394445698,21.16895566138,1,,,,
38778_BUS_N,Warszawa Międzylesie,52.20427320165,21.16835295618,0,38778,,,
38778_BUS_S,Warszawa Międzylesie,52.20516412514,21.16731225908,0,38778,,,
38778_RAIL,Warszawa Międzylesie,52.20394445698,21.16895566138,0,38778,,,
38786,Warszawa Radość,52.18574024783,21.18714211409,1,,,,
38786_BUS_N,Warszawa Radość,52.18349252378,21.18907033861,0,38786,,,
38786_BUS_S,Warszawa Radość,52.18426545808,21.18802964151,0,38786,,,
38786_RAIL,Warszawa Radość,52.18574024783,21.18714211409,0,38786,,,
38810,Warszawa Miedzeszyn,52.17267295793,21.20020344907,1,,,,
38810_BUS_N,Warszawa Miedzeszyn,52.17118625816,21.20134949148,0,38810,,,
38810_BUS_S,Warszawa Miedzeszyn,52.17010053803,21.20219706953,0,38810,,,
38810_RAIL,Warszawa Miedzeszyn,52.17267295793,21.20020344907,0,38810,,,
38836,Warszawa Falenica,52.16182633676,21.21100794974,1,,,,
38836_BUS_N,Warszawa Falenica,52.16175770447,21.2106996721,0,38836,,,
38836_BUS_S,Warszawa Falenica,52.16131674607,21.21093034208,0,38836,,,
38836_RAIL,Warszawa Falenica,52.16182633676,21.21100794974,0,38836,,,
38844,Michalin,52.14833316799,21.22446162698,1,,,,
38844_BUS_N,Michalin,52.14947175849,21.22300296485,0,38844,,,
38844_BUS_S,Michalin,52.14827359035,21.22390418708,0,38844,,,
38844_RAIL,Michalin,52.14833316799,21.22446162698,0,38844,,,
38851,Józefów,52.13602102297,21.23671289815,1,,,,
38851_BUS_N,Józefów,52.1378672634,21.23452305257,0,38851,,,
38851_BUS_S,Józefów,52.13710010796,21.23502194345,0,38851,,,
38851_RAIL,Józefów,52.13602102297,21.23671289815,0,38851,,,
38869,Otwock Świder,52.12112611213,21.25151981349,1,,,,
38869_BUS_N,Otwock Świder,52.11936130512,21.24769538105,0,38869,,,
38869_BUS_SE,Otwock Świder,52.1191603797,21.24763100803,0,38869,,,
38869_RAIL,Otwock Świder,52.12112611213,21.25151981349,0,38869,,,
38885,Otwock,52.10961288372,21.26300835582,1,,,,
38885_BUS,Otwock,52.10986904681,21.26345874489,0,38885,,,
38885_RAIL,Otwock,52.10961288372,21.26300835582,0,38885,,,
38919,Otwock Śródborów,52.10122249429,21.29439559853,0,,,,
38927,Pogorzel Warszawska,52.09469154811,21.34057425397,0,,,,
38935,Stara Wieś,52.08425751778,21.35878654233,0,,,,
38943,Celestynów,52.05791247682,21.39363541006,0,,,,
38950,Kołbiel,52.04022742893,21.43447900266,0,,,,
38968,Chrosna,52.0316362148,21.44831860979,0,,,,
38976,Zabieżki,52.01245522448,21.4718879914,0,,,,
38984,Augustówka,51.98700467401,21.51386435715,0,,,,
39008,Mińsk Mazowiecki,52.17586935636,21.55245601594,0,,,,
3905,Białogard,54.00994582961,15.97770929606,0,,,,
39073,Mienia,52.14933583346,21.68712272884,0,,,,
39081,Barcząca,52.15682153062,21.62631827116,0,,,,
39123,Dębe Wielkie,52.19917981693,21.4228349828,0,,,,
3913,Kościernica,54.05438259153,16.01113413166,0,,,,
39131,Halinów,52.22343028926,21.35011789815,0,,,,
39149,Cisie,52.21001084138,21.39035614352,0,,,,
39156,Wrzosów,52.18439491026,21.48263458895,0,,,,
39206,Pilawa,51.95562237451,21.53356362698,0,,,,
3921,Nosówko,54.0926993555,16.05249804963,0,,,,
39263,Garwolin,51.90101942603,21.5541062209,0,,,,
39271,Wola Rowska,51.82130194434,21.60118318651,0,,,,
39297,Łaskarzew Przystanek,51.7979990755,21.60853327116,0,,,,
39313,Leokadia,51.76687905341,21.63310049207,0,,,,
39321,Sobolew,51.74134575258,21.673084459,0,,,,
39339,Wygoda,51.68878717439,21.73097733862,0,,,,
39347,Mika,51.67269001972,21.74848726257,0,,,,
39354,Życzyn,51.64773426344,21.76039519378,0,,,,
39370,Ruda Talubska,51.85285748836,21.58979996728,0,,,,
3939,Dunowo,54.12222445008,16.09225465615,0,,,,
39404,Siedlce,52.16181364664,22.27167427003,0,,,,
39438,Stok Lacki,52.16213488444,22.38828666005,0,,,,
39453,Krzymosze,52.17795326288,22.43917473743,0,,,,
39461,Białki Siedleckie,52.12860906833,22.30943645767,0,,,,
39479,Kosiorki,52.10710676855,22.33601208466,0,,,,
39487,Borki-Kosy,52.08898435195,22.358397,0,,,,
39495,Dziewule,52.0552074299,22.38617019511,0,,,,
39529,Radomyśl,52.03111220148,22.38099972884,0,,,,
3954,Podborsko,53.93419498942,16.13879315176,0,,,,
3962,Tychowo,53.92145924928,16.23497379961,0,,,,
39693,Mordy,52.19581050689,22.49657249074,0,,,,
3970,Wielanowo,53.87381936913,16.32635262219,0,,,,
39719,Mordy Miasto,52.20342623152,22.52156014484,0,,,,
39727,Cierpigórz,52.22605726444,22.59473850661,0,,,,
39743,Niemojki,52.25866465828,22.70130330423,0,,,,
39750,Patków,52.27087460635,22.74549011639,0,,,,
39768,Platerów,52.30105256082,22.82068389815,0,,,,
39776,Sarnaki,52.32522762664,22.87979228703,0,,,,
39784,Fronołów,52.36085682793,22.92909917791,0,,,,
39800,Mińsk Mazowiecki Anielina,52.16779167783,21.58554522454,0,,,,
39818,Sabinka,52.17317174145,22.17269002855,0,,,,
39834,Koszewnica,52.16909990404,21.98689004663,0,,,,
39842,Sosnowe,52.17588073804,21.940556,0,,,,
39867,Grodziszcze Mazowieckie,52.16082621327,21.87231232275,0,,,,
39875,Mrozy,52.16419810829,21.80148861111,0,,,,
3988,Grzmiąca,53.83252830598,16.41947706134,0,,,,
39883,Cegłów,52.14847603036,21.73634290158,0,,,,
39909,Łuków,51.9410027565,22.39151672618,0,,,,
39925,Krynka Łukowska,52.00671762606,22.37578931779,0,,,,
39958,Matysy,51.9399922711,22.49385434593,0,,,,
3996,Nielep,53.82976930365,15.87115681656,0,,,,
39974,Radzyń Podlaski,51.82712515124,22.66861437678,0,,,,
39990,Jaski,51.85937253766,22.5914095974,0,,,,
40022,Milanów,51.70221187971,22.87511377034,0,,,,
40030,Parczew,51.62622126255,22.87159169588,0,,,,
40048,Gródek,51.57970100163,22.79404887325,0,,,,
40055,Brzeźnica Bychawska,51.52901231232,22.74273471191,0,,,,
40071,Tarło,51.50630158131,22.68739723964,0,,,,
4010,Czarnowęsy Pomorskie,53.93990874421,15.98145960689,0,,,,
40113,Łuków Łapiguz,51.92473284937,22.35988793065,0,,,,
40121,Sarnów,51.84302360449,22.29603822872,0,,,,
40139,Borowina,51.82495112991,22.27002586838,0,,,,
40147,Hordzieżka,51.75438767628,22.16067523108,0,,,,
40154,Krzywda,51.79499692911,22.20518390974,0,,,,
40162,Okrzeja,51.73174623917,22.13606765552,0,,,,
4028,Karlino,54.04519141621,15.88331332492,0,,,,
40345,Góra Kalwaria,51.98927746226,21.19313725529,0,,,,
4036,Daszewo,54.07692101351,15.87504563803,0,,,,
40360,Czachówek Wschodni,51.97350599689,21.10445042023,0,,,,
40436,Czachówek Górny,51.96789606624,21.07763617791,0,,,,
40444,Czachówek Południowy,51.95828068108,21.08155178043,0,,,,
40808,Biała Podlaska,52.02033370388,23.1305732068,0,,,,
40832,Międzyrzec Podlaski,51.97602474764,22.7854278251,0,,,,
40865,Brzozowica,51.95371819587,22.60754507414,0,,,,
40873,Misie,51.95931284033,22.68816927312,0,,,,
40881,Sitno,51.98578893745,22.86611090352,0,,,,
40899,Szachy,51.99170421802,22.91042567244,0,,,,
40923,Porosiuki,52.01182946062,23.06217154641,0,,,,
40949,Chotyłów,51.99684579892,23.3558781676,0,,,,
40956,Ogrodniki,52.00079667487,23.23971751922,0,,,,
40972,Perkowice,51.99660882906,23.27986922878,0,,,,
40980,Dobrynka,51.99856348797,23.44132916868,0,,,,
40998,Terespol,52.07398543681,23.60112306555,0,,,,
4101,Kołobrzeg,54.18224244455,15.57084203011,0,,,,
41202,Żagań,51.60411323724,15.31502653134,0,,,,
4127,Wrzosowo,54.11483830389,15.8374181517,0,,,,
41277,Małomice,51.5496823915,15.4469895364,0,,,,
41285,Leszno Górne,51.46679466929,15.61650751948,0,,,,
4135,Ustronie Morskie,54.20030545011,15.74765922422,0,,,,
41368,Bieniów,51.71601797405,15.17904033592,0,,,,
4143,Dygowo,54.14085719199,15.72668350965,0,,,,
4150,Jazy,54.12920552654,15.79018778744,0,,,,
41558,Żary,51.63428898391,15.13823113914,0,,,,
41582,Lubanice,51.69190047951,15.12033137169,0,,,,
41608,Lipinki Łużyckie,51.64874854834,15.01050262957,0,,,,
41632,Żary Kunice,51.59938232924,15.16573009676,0,,,,
41640,Konin Żagański,51.54597554799,15.19147801522,0,,,,
41657,Jankowa Żagańska,51.56704652974,15.18100457499,0,,,,
41673,Iłowa Żagańska,51.50204191731,15.18854501138,0,,,,
4168,Stramnica,54.15486854454,15.65028238459,0,,,,
41707,Tuplice,51.67178410463,14.83754429243,0,,,,
41715,Zasieki,51.73549379919,14.66923087643,0,,,,
41749,Tuplice Dębinka,51.66613591966,14.90992302667,0,,,,
4176,Głowaczewo,54.13067078185,15.4385107215,0,,,,
4192,Stary Borek,54.1379522399,15.48143648354,0,,,,
42002,Nowa Sól,51.79912167571,15.70874382983,0,,,,
42127,Bytom Odrzański,51.72648093427,15.82103212556,0,,,,
4218,Karcino,54.10885113216,15.39721791072,0,,,,
42200,Głogów,51.66967512769,16.07957260999,0,,,,
4226,Bieczyno Pomorskie,54.09586189373,15.3534530391,0,,,,
42432,Krzepów,51.64493922763,16.13341680657,0,,,,
42440,Grębocice,51.59331318454,16.1851474122,0,,,,
42457,Głogów Wróblin,51.6865758013,15.95455879242,0,,,,
42465,Głogów Huta,51.67537658522,15.9923153504,0,,,,
42473,Brzeg Głogowski,51.6909839441,15.9183685723,0,,,,
42481,Czerna,51.70216198721,15.88493439219,0,,,,
42499,Głogówko,51.73524143918,16.09566982234,0,,,,
42606,Leszno,51.84588963258,16.56545428391,0,,,,
42648,Lipno Nowe,51.91927009437,16.57064854931,0,,,,
42655,Górka Duchowna,51.9542482321,16.57692342314,0,,,,
42671,Stare Bojanowo,51.99652520111,16.58508213222,0,,,,
42689,Przysieka Stara,52.03636850708,16.60440346091,0,,,,
42697,Kąkolewo,51.85783975774,16.68673489815,0,,,,
42754,Leszno Grzybowo,51.86025638155,16.61213157539,0,,,,
42770,Pawłowice,51.81995073103,16.75912311905,0,,,,
42788,Poniec,51.76159964619,16.8077827705,0,,,,
42796,Dzięczyn,51.75727644928,16.85428084656,0,,,,
42820,Karzec,51.75474328292,16.90422437302,0,,,,
42838,Krobia,51.75901312669,16.97145781349,0,,,,
42853,Rydzyna,51.77124991374,16.6463987018,0,,,,
42861,Kaczkowo,51.74313969908,16.6802150919,0,,,,
42879,Lasocice,51.81589535332,16.48598373653,0,,,,
42887,Wschowa,51.79397990707,16.31674040741,0,,,,
42937,Stare Drzewce,51.77665826586,16.19567380817,0,,,,
42952,Wilkowice,51.88676648811,16.54124976686,0,,,,
42960,Krzycko Wielkie,51.90422929191,16.45262250793,0,,,,
42978,Włoszakowice,51.93282584394,16.37348760979,0,,,,
43000,Wolsztyn,52.11144382872,16.10821008146,0,,,,
43026,Rostarzewo,52.13496695112,16.20683661839,0,,,,
43034,Tłoki,52.11627941122,16.17225682209,0,,,,
43042,Rakoniewice,52.13848295206,16.26446753472,0,,,,
43059,Drzymałowo,52.15695696249,16.29686708466,0,,,,
43067,Ruchocice,52.17747369036,16.34224769577,0,,,,
43075,Ptaszkowo,52.22923314291,16.44117833862,0,,,,
43091,Grodzisk Wielkopolski,52.23047565056,16.3638970229,0,,,,
43125,Granowo,52.2254894217,16.5307760185,0,,,,
43133,Strykowo Poznańskie,52.24352824822,16.61392749207,0,,,,
43190,Powodowo,52.12329317425,16.05409603439,0,,,,
43265,Wroniawy,52.05999171919,16.1648597963,0,,,,
43273,Nowy Widzim,52.08097670289,16.14236959259,0,,,,
43281,Nowy Solec,52.03071940721,16.19484489815,0,,,,
43299,Nowawieś Mochy,52.01473320632,16.21562344048,0,,,,
43323,Perkowo,52.00366200322,16.26963766865,0,,,,
43331,Błotnica,51.99310873352,16.30052536442,0,,,,
43349,Starkowo,51.97877870443,16.31266650066,0,,,,
43356,Boszkowo,51.96093305548,16.33534390675,0,,,,
43406,Kościan,52.07887930382,16.6419466574,0,,,,
43430,Oborzyska Stare,52.11037815478,16.70109517865,0,,,,
43448,Czempiń,52.13897413456,16.75235817165,0,,,,
44008,Krotoszyn,51.70152870299,17.42615102649,0,,,,
44040,Biadki,51.67709309899,17.56698594841,0,,,,
44057,Gorzupia,51.69185961262,17.50406383395,0,,,,
44073,Łąkociny,51.65683677382,17.66863343954,0,,,,
4408,Koszalin,54.19039460958,16.16960647928,0,,,,
44081,Daniszyn,51.66747157194,17.61421678305,0,,,,
44115,Dzierżanów Wielkopolski,51.71217991474,17.35368927116,0,,,,
44123,Kuklinów,51.71916320351,17.31916807606,0,,,,
44131,Kobylin,51.72002332328,17.22371516071,0,,,,
44156,Czeluścin,51.72792658162,17.16379708466,0,,,,
4416,Mścice,54.21427020781,16.07319467119,0,,,,
44164,Pępowo,51.73702335593,17.1129392123,0,,,,
44172,Włostowo,51.75290332087,17.02572577183,0,,,,
44180,Zduny,51.64654565691,17.36632703662,0,,,,
44222,Cieszków,51.6313643418,17.35256192923,0,,,,
4424,Będzino,54.21123446404,15.9927743942,0,,,,
44305,Rawicz,51.60877741913,16.83979934136,1,,,,
44305_BUS,Rawicz,51.60896093738,16.84049606055,0,44305,,,
44305_RAIL,Rawicz,51.60877741913,16.83979934136,0,44305,,,
4440,Słowienkowo,54.20714933429,15.94128875997,0,,,,
44420,Żmigród,51.47485191109,16.90180355369,0,,,,
44438,Garbce,51.51402155535,16.88945971221,0,,,,
44453,Korzeńsko,51.54445053198,16.87232823677,0,,,,
44511,Bojanowo,51.70052468981,16.74423054228,1,,,,
44511_BUS,Bojanowo,51.70069254295,16.74522399634,0,44511,,,
44511_RAIL,Bojanowo,51.70052468981,16.74423054228,0,44511,,,
44529,Zaborowice,51.685819,16.686808,1,,,,
44529_BUS_E,Zaborowice,51.68575717722,16.68686985433,0,44529,,,
44529_BUS_W,Zaborowice,51.68588023167,16.68674647272,0,44529,,,
44537,Borszyn Wielki,51.671431,16.63472,1,,,,
44537_BUS_E,Borszyn Wielki,51.67144565869,16.63324445218,0,44537,,,
44537_BUS_W,Borszyn Wielki,51.67141571701,16.63619488209,0,44537,,,
44545,Borszyn Mały,51.673327,16.595522,1,,,,
44545_BUS_E,Borszyn Mały,51.67324545123,16.59552186191,0,44545,,,
44545_BUS_W,Borszyn Mały,51.67340846018,16.59552186191,0,44545,,,
44552_BUS,Góra Śląska,51.66754143025,16.535483298,0,,,,
4457,Miłogoszcz,54.20533957721,15.90930613342,0,,,,
4465,Tymień,54.20533674093,15.8450021528,0,,,,
44701,Jarocin,51.96872297641,17.49468683124,0,,,,
44727,Radlin Wielkopolski,52.03329228618,17.49948854233,0,,,,
44735,Mieszków,52.02335477922,17.4403764918,0,,,,
44750,Żerków,52.06965895898,17.49765781349,0,,,,
44768,Orzechowo,52.12661336231,17.47783927116,0,,,,
44776,Miłosław,52.20856276507,17.47673489815,0,,,,
44784,Książno,52.24620261189,17.49385848347,0,,,,
44792,Chwalibogowo,52.28340659377,17.52515338161,0,,,,
4481,Skibno,54.24943321166,16.30459844798,0,,,,
44826,Witaszyce,51.93609338545,17.56245356249,0,,,,
44834,Kotlin,51.91456671823,17.64923426501,0,,,,
44842,Pleszew,51.89250513527,17.73247445481,0,,,,
44859,Taczanów,51.84056123736,17.75627321281,0,,,,
44867,Bronów,51.7950380985,17.77404774263,0,,,,
44883,Biniew,51.73918451684,17.79240435171,0,,,,
4499,Wiekowo,54.30409600263,16.38789477959,0,,,,
4515,Mielno Koszalińskie,54.25440761874,16.05382440493,0,,,,
45203,Nowe Skalmierzyce,51.70819767368,17.99797696306,0,,,,
45229,Ociąż,51.70200522955,17.93335604715,0,,,,
45245,Kalisz,51.74278329437,18.07118445486,0,,,,
45278,Kalisz Szczypiorno,51.72600891317,18.02737160699,0,,,,
45294,Kalisz Winiary,51.73348569898,18.14153905968,0,,,,
45310,Opatówek,51.74334955902,18.22791781486,0,,,,
45328,Radliczyce,51.72329777994,18.34993935063,0,,,,
